,ID,City,Lat,Lng,Max Temp,Humidity,Cloudiness,Wind Speed,Country,Date
0,5789683,Centralia,46.7162,-122.9543,13.0,67,1,0.81,US,1619756484
1,4020109,Atuona,-9.8,-139.0333,26.29,70,9,2.36,PF,1619756484
2,3440777,Rocha,-34.4833,-54.3333,11.81,87,0,2.21,UY,1619756485
3,6089245,Norman Wells,65.282,-126.8329,7.0,29,40,2.06,CA,1619756485
4,2173911,Broken Hill,-31.95,141.4333,26.0,24,0,5.14,AU,1619756486
5,2068655,Katherine,-14.4667,132.2667,33.0,29,1,4.63,AU,1619756486
6,2729907,Longyearbyen,78.2186,15.6401,-6.0,58,40,3.6,SJ,1619756486
7,2208248,Kaitangata,-46.2817,169.8464,12.22,56,41,7.15,NZ,1619756487
8,3493032,San Pedro de Macorís,18.4616,-69.2972,23.33,100,40,3.09,DO,1619756487
9,6355222,Yulara,-25.2406,130.9889,26.0,15,30,2.57,AU,1619756487
10,3832899,Viedma,-40.8135,-62.9967,18.7,61,96,8.31,AR,1619756427
11,2125693,Evensk,61.95,159.2333,0.58,92,44,0.5,RU,1619756488
12,4035715,Avarua,-21.2078,-159.775,27.0,83,20,3.09,CK,1619756239
13,556268,Ostrovnoy,68.0531,39.5131,-2.59,88,100,7.83,RU,1619756489
14,2163355,Hobart,-42.8794,147.3294,20.0,55,20,1.54,AU,1619756232
15,686090,Asău,46.4333,26.4,12.22,56,31,2.27,RO,1619756489
16,934322,Mahébourg,-20.4081,57.7,26.0,83,40,5.66,MU,1619756490
17,3833367,Ushuaia,-54.8,-68.3,4.0,75,90,2.57,AR,1619756490
18,2155415,New Norfolk,-42.7826,147.0587,20.0,46,24,0.45,AU,1619756490
19,4032243,Vaini,-21.2,-175.2,24.0,94,90,5.66,TO,1619756491
20,6185377,Yellowknife,62.456,-114.3525,-1.0,55,20,4.63,CA,1619756237
21,6201424,Mataura,-46.1927,168.8643,11.67,76,27,4.47,NZ,1619756231
22,2110227,Butaritari,3.0707,172.7902,28.82,71,99,4.28,KI,1619756491
23,4031637,Lavrentiya,65.5833,-171.0,-3.04,74,32,1.82,RU,1619756492
24,2092164,Lorengau,-2.0226,147.2712,29.26,69,100,0.92,PG,1619756492
25,1858301,Kurayoshi,35.4333,133.8167,20.0,88,75,3.6,JP,1619756492
26,5563839,Fortuna,40.5982,-124.1573,10.0,87,1,1.54,US,1619756493
27,5106841,Albany,42.6001,-73.9662,13.33,89,100,0.95,US,1619756387
28,3369157,Cape Town,-33.9258,18.4232,14.44,77,20,5.66,ZA,1619756469
29,2654970,Brae,60.3964,-1.353,3.0,87,20,4.12,GB,1619756493
30,571155,Buinsk,54.95,48.2833,9.0,57,12,2.0,RU,1619756466
31,2206939,Bluff,-46.6,168.3333,11.67,73,27,4.92,NZ,1619756494
32,6170031,Tuktoyaktuk,69.4541,-133.0374,-4.0,80,1,5.14,CA,1619756494
33,1735106,George Town,5.4112,100.3354,32.0,70,20,2.06,MY,1619756297
34,4030556,Rikitea,-23.1203,-134.9692,25.14,69,89,5.61,PF,1619756495
35,2139521,Noumea,-22.2763,166.4572,27.22,47,75,4.63,NC,1619756023
36,3454005,Piaçabuçu,-10.4056,-36.4344,24.71,84,59,3.54,BR,1619756495
37,3420846,Qaqortoq,60.7167,-46.0333,3.0,81,75,2.56,GL,1619756496
38,1791779,Wanning,18.8003,110.3967,27.71,72,74,2.21,CN,1619756496
39,5546220,Saint George,37.1041,-113.5841,24.44,17,1,1.4,US,1619756328
40,2126199,Cherskiy,68.75,161.3,-6.34,84,64,4.85,RU,1619756497
41,2126123,Chokurdakh,70.6333,147.9167,-6.8,85,11,2.51,RU,1619756497
42,1649150,Bengkulu,-3.8004,102.2655,28.25,71,98,1.77,ID,1619756497
43,1489822,Tegul'det,57.3064,88.1667,8.02,70,76,5.85,RU,1619756498
44,1786855,Yatou,37.15,122.3833,13.31,38,42,5.92,CN,1619756498
45,5122534,Jamestown,42.097,-79.2353,7.22,100,90,6.69,US,1619756498
46,4034551,Faanui,-16.4833,-151.75,27.53,69,98,1.24,PF,1619756499
47,3374083,Bathsheba,13.2167,-59.5167,26.0,65,40,5.66,BB,1619756499
48,2037886,Dandong,40.1292,124.3947,12.22,62,99,2.46,CN,1619756500
49,3361934,Saldanha,-33.0117,17.9442,12.0,82,0,3.6,ZA,1619756409
50,1490256,Talnakh,69.4865,88.3972,-0.35,89,56,1.06,RU,1619756500
51,3932145,Pisco,-13.7,-76.2167,18.33,88,0,1.03,PE,1619756273
52,2180815,Tuatapere,-46.1333,167.6833,11.67,73,61,4.92,NZ,1619756501
53,3874787,Punta Arenas,-53.15,-70.9167,6.0,93,90,2.57,CL,1619756240
54,546105,Nikolskoye,59.7035,30.7861,3.89,69,0,1.0,RU,1619756501
55,3448903,São João da Barra,-21.6403,-41.0511,19.66,87,60,5.26,BR,1619756365
56,5855927,Hilo,19.7297,-155.09,27.0,61,90,3.09,US,1619756436
57,3831208,Qaanaaq,77.484,-69.3632,-3.89,60,100,4.74,GL,1619756502
58,60019,Eyl,7.9803,49.8164,28.82,71,72,2.29,SO,1619756502
59,3471451,Arraial do Cabo,-22.9661,-42.0278,22.42,67,24,3.75,BR,1619756267
60,5367788,Lompoc,34.6391,-120.4579,12.0,82,10,2.57,US,1619756491
61,4726521,San Patricio,28.017,-97.5169,24.44,88,90,3.6,US,1619756503
62,3573374,The Valley,18.217,-63.0578,26.11,73,20,4.12,AI,1619756503
63,964432,Port Alfred,-33.5906,26.891,16.86,68,97,5.97,ZA,1619756234
64,2264557,Ponta do Sol,32.6667,-17.1,13.33,72,47,1.34,PT,1619756504
65,4895282,Harvard,42.4222,-88.6137,12.22,67,1,4.62,US,1619756504
66,933995,Souillac,-20.5167,57.5167,26.0,83,40,5.66,MU,1619756463
67,2022572,Khatanga,71.9667,102.5,0.39,100,100,2.29,RU,1619756505
68,3366880,Hermanus,-34.4187,19.2345,10.56,92,62,0.45,ZA,1619756248
69,1512019,Aksarka,66.5606,67.7975,-3.32,91,100,4.13,RU,1619756505
70,352628,Maţāy,28.419,30.7792,24.1,22,0,3.82,EG,1619756506
71,1515029,Ulaangom,49.9811,92.0667,16.53,34,95,2.22,MN,1619756506
72,3115824,Muros,42.7762,-9.0603,5.0,94,9,3.87,ES,1619756506
73,2138555,Poum,-20.2333,164.0167,25.28,60,86,6.82,NC,1619756507
74,1486369,Yarkovo,57.4028,67.0786,9.29,51,8,4.81,RU,1619756508
75,3531730,Campeche,19.0,-90.5,27.59,56,71,3.14,MX,1619756508
76,3466704,Castro,-24.7911,-50.0119,8.98,99,14,2.12,BR,1619756479
77,3385658,Uruçuí,-7.2294,-44.5561,22.8,86,78,0.8,BR,1619756509
78,2446796,Bilma,18.6853,12.9164,27.45,8,0,3.34,NE,1619756509
79,758682,Sochaczew,52.2294,20.2384,11.11,100,100,4.41,PL,1619756509
80,4844309,Torrington,41.8007,-73.1212,16.11,100,100,3.92,US,1619756510
81,2309528,Luba,3.4568,8.5547,25.0,88,20,2.53,GQ,1619756510
82,3115696,Ochando,41.0507,-4.4362,6.11,86,99,2.54,ES,1619756511
83,2122414,Orotukan,62.2667,151.7,-0.1,90,100,1.18,RU,1619756511
84,2063036,Port Lincoln,-34.7333,135.8667,23.17,39,69,4.62,AU,1619756511
85,3694725,Moche,-8.1711,-79.0092,19.58,86,0,3.08,PE,1619756512
86,1688859,San Nicolas,18.1725,120.5953,30.0,66,40,3.6,PH,1619756512
87,2075265,Busselton,-33.65,115.3333,16.11,85,40,0.45,AU,1619756513
88,3652764,Puerto Ayora,-0.7393,-90.3518,24.11,85,40,3.59,EC,1619756513
89,964420,Port Elizabeth,-33.918,25.5701,13.0,94,0,4.63,ZA,1619756513
90,3393536,Olinda,-8.0089,-34.8553,23.0,88,40,2.57,BR,1619756514
91,2032614,Baruun-Urt,46.6806,113.2792,6.24,30,78,7.38,MN,1619756514
92,2015306,Tiksi,71.6872,128.8694,0.33,83,84,2.03,RU,1619756514
93,4013708,Ciudad Juárez,31.7333,-106.4833,12.22,62,90,8.23,MX,1619756435
94,2112802,Hasaki,35.7333,140.8333,26.11,64,20,5.66,JP,1619756515
95,3883457,Lebu,-37.6167,-73.65,12.83,94,100,3.84,CL,1619756515
96,3372707,Ribeira Grande,38.5167,-28.7,14.16,65,100,3.23,PT,1619756516
97,4946620,Palmer,42.1584,-72.3287,11.67,100,90,1.54,US,1619756516
98,4021858,Guerrero Negro,27.9769,-114.0611,17.45,73,0,7.36,MX,1619756517
99,1500399,Lokosovo,61.1333,74.8167,3.14,86,97,6.17,RU,1619756517
100,5570065,Red Bluff,40.1785,-122.2358,25.0,33,1,1.31,US,1619756517
101,2629833,Husavik,66.0449,-17.3389,2.0,80,90,3.09,IS,1619756518
102,3576994,Cockburn Town,21.4612,-71.1419,25.68,76,1,8.08,TC,1619756382
103,570813,Buribay,51.9617,58.1592,9.28,56,17,4.03,RU,1619756518
104,3372964,Lagoa,39.05,-27.9833,13.6,61,100,2.02,PT,1619756519
105,5880054,Barrow,71.2906,-156.7887,-7.0,86,90,2.57,US,1619756519
106,3728097,Les Cayes,18.2,-73.75,23.94,76,3,2.27,HT,1619756520
107,1282256,Hithadhoo,-0.6,73.0833,28.86,71,57,2.96,MV,1619756520
108,2126710,Beringovskiy,63.05,179.3167,-1.41,78,47,3.13,RU,1619756521
109,1810637,Ganzhou,28.8184,115.4327,28.25,49,0,5.3,CN,1619756521
110,3517970,Pochutla,15.7432,-96.4661,27.0,78,40,2.49,MX,1619756522
111,2019323,Nerchinskiy Zavod,51.3088,119.61,1.47,96,100,3.22,RU,1619756522
112,3466165,Cidreira,-30.1811,-50.2056,18.12,78,0,3.21,BR,1619756290
113,5954718,Flin Flon,54.7682,-101.865,-2.0,61,1,1.14,CA,1619756522
114,4031574,Provideniya,64.3833,-173.3,-3.0,86,90,5.0,RU,1619756523
115,3581194,San Ignacio,17.1561,-89.0714,27.0,74,0,3.09,BZ,1619756523
116,143073,Ardakān,32.31,54.0175,22.0,21,40,3.09,IR,1619756524
117,3520989,Puerto Madero,14.7208,-92.4215,28.0,74,40,1.62,MX,1619756524
118,1106677,Bambous Virieux,-20.3428,57.7575,26.11,83,40,5.66,MU,1619756524
119,1651810,Airai,-8.9266,125.4092,23.83,58,31,1.28,TL,1619756525
120,3414079,Olafsvik,64.8945,-23.7142,4.41,77,77,2.11,IS,1619756525
121,3422683,Kangaatsiaq,68.3065,-53.4641,0.32,89,100,0.61,GL,1619756525
122,1629001,Samarinda,-0.5,117.15,31.85,64,78,1.56,ID,1619756526
123,3402648,Carutapera,-1.195,-46.02,23.7,93,97,1.64,BR,1619756488
124,3418910,Upernavik,72.7868,-56.1549,-5.27,57,98,2.22,GL,1619756526
125,3443061,Chui,-33.6971,-53.4616,12.89,84,0,2.05,UY,1619756463
126,779622,Havøysund,70.9963,24.6622,-1.0,64,75,8.23,NO,1619756527
127,927967,Lilongwe,-13.9669,33.7873,16.0,100,40,0.83,MW,1619756528
128,2399371,Makokou,0.5738,12.8642,21.52,99,100,0.75,GA,1619756528
129,3372472,Vila Franca do Campo,37.7167,-25.4333,13.0,82,75,3.09,PT,1619756528
130,2738381,Lata,40.1629,-8.3327,9.44,92,80,0.86,PT,1619756529
131,1337619,Ugoofaaru,5.6667,73.0,28.8,71,56,2.5,MV,1619756529
132,3936456,Lima,-12.0432,-77.0282,18.33,88,0,3.6,PE,1619756487
133,1015776,Bredasdorp,-34.5322,20.0403,8.0,93,4,1.54,ZA,1619756529
134,2128975,Nemuro,43.3236,145.575,6.0,100,75,10.8,JP,1619756530
135,1269509,Jais,26.25,81.5333,39.39,8,13,2.38,IN,1619756530
136,1791247,Wuhan,30.5833,114.2667,29.0,51,0,6.0,CN,1619756309
137,2018735,Nyurba,63.2842,118.3319,4.17,63,98,3.0,RU,1619756531
138,3430863,Mar del Plata,-38.0023,-57.5575,15.56,88,0,3.09,AR,1619756365
139,3984997,San Quintín,30.4833,-115.95,16.99,79,0,2.49,MX,1619756321
140,3663517,Manaus,-3.1019,-60.025,26.0,83,75,2.57,BR,1619756236
141,2017155,Saskylakh,71.9167,114.0833,1.12,99,100,3.34,RU,1619756532
142,341397,Burē,10.7,37.0667,15.34,82,100,1.49,ET,1619756532
143,6165406,Thompson,55.7435,-97.8558,-4.0,68,40,3.08,CA,1619756532
144,1214488,Meulaboh,4.1363,96.1285,29.31,67,84,2.26,ID,1619756533
145,3419842,Sisimiut,66.9395,-53.6735,1.55,79,76,2.32,GL,1619756534
146,5610815,Twin Falls,42.3505,-114.6445,15.0,35,1,5.14,US,1619756534
147,3869716,Tocopilla,-22.092,-70.1979,18.84,72,1,3.38,CL,1619756535
148,3421193,Paamiut,61.994,-49.6678,2.39,84,6,1.41,GL,1619756535
149,5924351,Clyde River,70.4692,-68.5914,-5.0,93,90,1.54,CA,1619756536
150,3137469,Sørland,67.667,12.6934,0.0,80,75,2.57,NO,1619756536
151,5859699,College,64.8569,-147.8028,5.0,75,75,3.6,US,1619756536
152,3347019,Mossamedes,-15.1961,12.1522,23.09,77,87,1.6,AO,1619756537
153,1507390,Dikson,73.5069,80.5464,-11.1,88,45,4.66,RU,1619756537
154,1337610,Thinadhoo,0.5333,72.9333,28.69,71,19,2.19,MV,1619756538
155,2937959,Bone,51.9669,12.1396,8.89,73,100,1.34,DE,1619756538
156,2071860,Esperance,-33.8667,121.9,18.0,55,90,6.69,AU,1619756273
157,545223,Konyshevka,51.8418,35.2941,8.0,57,0,4.0,RU,1619756539
158,5557293,Sitka,57.0531,-135.33,7.0,87,90,3.6,US,1619756513
159,5866583,Saint Paul Harbor,57.79,-152.4072,7.0,81,90,1.24,US,1619756540
160,5142056,Utica,43.1009,-75.2327,10.0,96,100,0.89,US,1619756540
161,5848280,Kapaa,22.0752,-159.319,24.0,69,1,6.17,US,1619756540
162,897456,Sinazongwe,-17.2614,27.4618,22.37,72,7,1.32,ZM,1619756541
163,1152188,Mae Sot,16.7167,98.5667,28.0,74,75,3.09,TH,1619756541
164,203717,Yangambi,0.8102,24.4336,21.23,99,100,0.6,CD,1619756541
165,1818051,Anjiang,27.3194,110.1031,28.62,42,4,2.56,CN,1619756542
166,5282297,Bethel,41.3712,-73.414,18.89,91,100,5.85,US,1619756412
167,5746545,Portland,45.5234,-122.6762,17.78,51,75,3.6,US,1619755901
168,1079048,Ambovombe,-25.1667,46.0833,21.83,76,0,2.49,MG,1619756543
169,3893726,Constitución,-35.3333,-72.4167,12.32,91,59,0.52,CL,1619756543
170,1516048,Khovd,48.0056,91.6419,21.63,20,77,2.86,MN,1619756544
171,2121385,Severo-Kuril'sk,50.6789,156.125,4.95,75,21,3.75,RU,1619756499
172,3389358,Santa Quitéria do Maranhão,-3.5156,-42.5467,22.9,98,100,1.58,BR,1619756544
173,3939761,Hualmay,-11.0964,-77.6139,19.09,87,0,3.59,PE,1619756545
174,2177069,Ballina,-28.8667,153.5667,22.0,78,75,4.12,AU,1619756545
175,1528998,Yumen,40.2833,97.2,25.28,8,8,6.28,CN,1619756545
176,5983720,Iqaluit,63.7506,-68.5145,1.0,93,90,2.06,CA,1619756518
177,2074865,Carnarvon,-24.8667,113.6333,27.0,50,100,7.72,AU,1619756546
178,2156643,Mount Gambier,-37.8333,140.7667,25.0,31,0,7.2,AU,1619756405
179,648090,Lieksa,63.3167,30.0167,-1.12,79,97,3.0,FI,1619756547
180,1310460,Martaban,16.5314,97.6111,30.72,57,36,2.07,MM,1619756547
181,3675504,Manaure,11.7751,-72.4445,26.19,75,75,4.09,CO,1619756547
182,1729469,Baculin,7.4525,126.5842,30.0,65,80,2.99,PH,1619756548
183,3985710,Cabo San Lucas,22.8909,-109.9124,22.22,49,0,0.45,MX,1619756518
184,1067565,Beloha,-25.1667,45.05,21.95,69,0,2.68,MG,1619756548
185,1738050,Marabu,4.4148,114.0089,30.0,74,40,2.57,MY,1619756549
186,1636308,Manokwari,-0.8667,134.0833,26.96,79,100,2.4,ID,1619756501
187,363656,Yambio,4.5721,28.3955,18.22,99,100,0.95,SS,1619756549
188,2094342,Kavieng,-2.5744,150.7967,29.36,68,41,4.15,PG,1619756550
189,935215,Saint-Philippe,-21.3585,55.7679,24.0,78,75,3.6,RE,1619756550
190,2112309,Katsuura,35.1333,140.3,25.56,53,20,8.23,JP,1619756307
191,6144312,Sept-Îles,50.2001,-66.3821,7.22,81,75,1.54,CA,1619756342
192,2063056,Port Augusta,-32.5,137.7667,27.0,19,17,7.2,AU,1619756551
193,933211,Nokaneng,-19.6667,22.2667,18.55,65,12,1.34,BW,1619756552
194,1696105,Palimbang,6.2106,124.1894,29.51,72,88,1.63,PH,1619756552
195,2136150,Luganville,-15.5333,167.1667,27.71,65,73,5.22,VU,1619756552
196,1507116,Dudinka,69.4058,86.1778,-1.6,92,78,3.77,RU,1619756553
197,2065594,Mount Isa,-20.7333,139.5,30.0,26,75,6.69,AU,1619756553
198,6119109,Regina,50.4501,-104.6178,7.78,42,90,2.06,CA,1619756553
199,3382160,Cayenne,4.9333,-52.3333,25.56,100,90,1.86,GF,1619756554
200,1280957,Jiayuguan City,39.8167,98.3,24.13,8,5,5.23,CN,1619756554
201,3531368,Celestún,20.8667,-90.4,28.96,53,10,8.0,MX,1619756555
202,3435264,Concepción del Uruguay,-32.4825,-58.2372,14.44,83,0,0.89,AR,1619756418
203,5962442,Goderich,43.7501,-81.7165,7.0,93,92,3.09,CA,1619756555
204,3670218,San Andrés,12.5847,-81.7006,27.0,74,40,2.57,CO,1619756555
205,2021017,Kysyl-Syr,63.8986,122.7617,0.83,83,99,1.94,RU,1619756556
206,2206854,Gisborne,-38.6533,178.0042,19.44,57,1,1.34,NZ,1619756556
207,1701054,Marawi,7.9986,124.2928,29.44,79,73,3.58,PH,1619756556
208,1529484,Kumul,42.8,93.45,27.02,11,2,1.8,CN,1619756557
209,1795632,Shenjiamen,29.9576,122.298,19.15,71,0,4.83,CN,1619756557
210,1485712,Yurginskoye,56.8189,67.3921,9.5,51,1,5.2,RU,1619756558
211,3452085,Queimadas,-10.9783,-39.6264,20.55,96,20,2.43,BR,1619756558
212,3424607,Tasiilaq,65.6145,-37.6368,-2.0,93,99,0.51,GL,1619756293
213,339629,Deder,9.3167,41.45,14.21,88,100,0.56,ET,1619756558
214,5870133,Nome,64.5011,-165.4064,-3.0,68,75,6.17,US,1619756559
215,161901,Kaka,37.3482,59.6143,20.86,62,100,4.22,TM,1619756559
216,3351663,Benguela,-12.5763,13.4055,24.93,81,100,1.09,AO,1619756559
217,1806840,Huilong,31.8111,121.655,28.89,40,26,3.4,CN,1619756560
218,2178753,Kirakira,-10.4544,161.9205,28.61,72,27,4.41,SB,1619756560
219,4129397,Russellville,35.2784,-93.1338,17.22,100,20,2.35,US,1619756561
220,2013921,Ust-Kuyga,70.0167,135.6,-0.72,90,6,1.87,RU,1619756561
221,3939168,Huarmey,-10.0681,-78.1522,19.65,86,0,3.6,PE,1619756561
222,934479,Grand Gaube,-20.0064,57.6608,26.11,83,19,3.58,MU,1619756562
223,3430545,Morón,-34.6534,-58.6198,18.89,86,0,0.89,AR,1619756562
224,962367,Richards Bay,-28.783,32.0377,20.39,87,100,6.9,ZA,1619756562
225,777019,Vardø,70.3705,31.1107,-2.0,80,40,7.2,NO,1619756563
226,110690,Faya,18.3851,42.4509,17.0,72,20,2.57,SA,1619756539
227,3353383,Rundu,-17.9333,19.7667,16.38,68,11,1.03,NA,1619756563
228,2630299,Hofn,64.2539,-15.2082,4.0,61,15,3.02,IS,1619756564
229,6093514,Oliver,49.1831,-119.5524,17.0,51,100,0.51,CA,1619756564
230,2127202,Anadyr,64.75,177.4833,-3.0,74,0,6.0,RU,1619756565
231,5849996,Lahaina,20.8783,-156.6825,25.0,83,40,5.66,US,1619756540
232,1687894,Santa Rosa,14.3122,121.1114,34.44,66,40,3.6,PH,1619756565
233,5850554,Makakilo City,21.3469,-158.0858,27.0,54,90,4.12,US,1619756565
234,2413419,Gunjur,13.2019,-16.7339,20.0,88,0,4.63,GM,1619756566
235,1071296,Antalaha,-14.9003,50.2788,24.66,83,29,2.91,MG,1619756567
236,2643044,Margate,51.3813,1.3862,5.56,80,36,4.01,GB,1619756567
237,2562619,Saint Lawrence,36.0553,14.204,16.67,100,20,4.12,MT,1619756568
238,3380290,Sinnamary,5.3833,-52.95,24.77,88,100,2.71,GF,1619756568
239,2160517,Launceston,-41.45,147.1667,17.0,63,40,7.2,AU,1619756400
240,2013279,Vostok,46.4856,135.8833,13.75,21,68,2.74,RU,1619756569
241,592611,Aegviidu,59.2858,25.6142,4.0,60,0,2.57,EE,1619756569
242,234178,Bundibugyo,0.7414,30.0417,19.28,80,100,1.17,UG,1619756569
243,1224061,Wattegama,6.7989,81.4808,30.65,61,89,1.21,LK,1619756570
244,1254046,Tura,25.5198,90.2201,35.28,23,7,2.88,IN,1619756570
245,64814,Bandarbeyla,9.4942,50.8122,28.36,72,16,1.87,SO,1619756570
246,111822,Yazd,31.8972,54.3675,22.0,21,40,3.09,IR,1619756571
247,3386213,Touros,-5.1989,-35.4608,23.0,100,40,2.06,BR,1619756571
248,103630,Najrān,17.4924,44.1277,22.0,64,75,3.82,SA,1619756572
249,1495626,Pangody,65.85,74.4859,-0.31,95,100,4.63,RU,1619756572
250,2150163,Sawtell,-30.3833,153.1,22.0,68,40,4.63,AU,1619756572
251,1623197,Tual,-5.6667,132.75,28.32,69,100,2.42,ID,1619756573
252,1519422,Semey,50.4111,80.2275,11.0,76,40,5.0,KZ,1619756573
253,1637001,Biak,-0.9131,122.8766,29.21,62,37,0.73,ID,1619756574
254,4013679,Coahuayana Viejo,18.7333,-103.6833,22.39,90,36,0.62,MX,1619756574
255,1259385,Port Blair,11.6667,92.75,31.0,79,40,1.54,IN,1619756574
256,986717,Kruisfontein,-34.0033,24.7314,12.22,95,95,0.45,ZA,1619756575
257,687093,Kozulka,50.0351,23.797,8.0,93,0,2.0,UA,1619756575
258,3457381,Mauá,-23.6678,-46.4614,15.0,88,90,4.63,BR,1619756576
259,1627185,Sijunjung,-0.6876,100.9537,22.46,99,100,0.5,ID,1619756576
260,2017215,Sangar,63.9242,127.4739,2.24,87,59,1.55,RU,1619756576
261,3355672,Lüderitz,-26.6481,15.1594,12.68,77,0,8.79,NA,1619756577
262,5882953,Aklavik,68.2191,-135.0107,6.0,38,27,1.54,CA,1619756577
263,4017992,Margaritas,20.4538,-102.4739,21.16,42,8,0.81,MX,1619756578
264,2173125,Burnie,-41.0667,145.9167,15.0,72,42,2.68,AU,1619756578
265,1526038,Atbasar,51.8,68.3333,10.27,42,15,2.86,KZ,1619756579
266,3439781,Treinta y Tres,-33.2333,-54.3833,11.38,84,0,1.75,UY,1619756579
267,2138285,Tadine,-21.55,167.8833,24.69,55,62,7.5,NC,1619756579
268,3836277,Santa Fe,-31.6333,-60.7,15.56,84,0,0.89,AR,1619756580
269,1630639,Pringsewu,-5.3582,104.9744,31.97,57,88,0.52,ID,1619756580
270,1812256,Dongsheng,39.8161,109.9776,10.28,31,4,12.64,CN,1619756581
271,286621,Salalah,17.0151,54.0924,29.0,79,75,3.6,OM,1619756581
272,3466980,Caravelas,-17.7125,-39.2481,24.29,73,100,4.87,BR,1619756466
273,292968,Abu Dhabi,24.4667,54.3667,30.0,54,0,1.54,AE,1619755984
274,4956335,Yarmouth,41.7057,-70.2286,13.33,94,90,5.66,US,1619756582
275,1856775,Miyakonojō,31.7333,131.0667,26.0,64,75,5.66,JP,1619756582
276,5516288,Andrews,32.3187,-102.5457,11.0,100,90,3.6,US,1619756583
277,6167817,Torbay,47.6666,-52.7314,2.22,93,1,3.09,CA,1619756310
278,933366,Maun,-19.9833,23.4167,16.0,100,0,2.06,BW,1619756581
279,739209,Suşehri,40.1644,38.0867,13.92,74,96,1.15,TR,1619756583
280,6096551,Pangnirtung,66.1451,-65.7125,-0.86,75,100,2.55,CA,1619756584
281,4798308,Beckley,37.7782,-81.1882,14.44,100,90,5.14,US,1619756584
282,2527087,Tiznit Province,29.5833,-9.5,12.49,88,0,1.69,MA,1619756584
283,5404476,Ukiah,39.1502,-123.2078,19.0,24,1,1.66,US,1619756404
284,3520994,Puerto Escondido,15.85,-97.0667,27.0,78,40,2.79,MX,1619756585
285,1510689,Baykit,61.67,96.37,5.5,68,97,5.29,RU,1619756585
286,1242110,Kalmunai,7.4167,81.8167,29.9,65,70,1.33,LK,1619756565
287,2396646,Oyem,1.5995,11.5793,19.51,98,100,0.67,GA,1619756586
288,2455290,Kidal,18.4411,1.4078,29.12,11,18,1.2,ML,1619756586
289,1835848,Seoul,37.5683,126.9778,14.0,71,75,2.57,KR,1619756078
290,390054,Baft,29.234,56.6057,17.42,32,88,2.22,IR,1619756587
291,3698141,Chota,-6.55,-78.65,12.0,96,80,1.63,PE,1619756587
292,3359638,Walvis Bay,-22.9575,14.5053,9.0,93,0,3.09,NA,1619756587
293,3892454,Diego de Almagro,-26.3667,-70.05,14.11,55,0,0.89,CL,1619756289
294,5354943,Half Moon Bay,37.4636,-122.4286,15.0,87,1,2.46,US,1619756588
295,3356832,Henties Bay,-22.116,14.2845,14.66,87,2,2.68,NA,1619756588
296,2122104,Petropavlovsk-Kamchatskiy,53.0452,158.6483,10.0,57,41,6.0,RU,1619756589
297,5972762,Hay River,60.8156,-115.7999,5.0,38,99,4.12,CA,1619756589
298,2398269,Moanda,-1.5575,13.2178,20.45,97,100,0.76,GA,1619756589
299,4362001,Mayo,38.8876,-76.5119,22.0,68,90,6.17,US,1619756590
300,3377301,Mabaruma,8.2,-59.7833,22.47,97,100,2.34,GY,1619756590
301,172515,Abu Samrah,35.3029,37.1841,21.75,38,9,2.29,SY,1619756303
302,1633419,Padang,-0.9492,100.3543,30.0,70,20,2.57,ID,1619756591
303,3839307,Rawson,-43.3002,-65.1023,17.84,49,98,2.45,AR,1619756591
304,3661944,Tefé,-3.3542,-64.7114,22.22,98,61,0.62,BR,1619756592
305,2240449,Luanda,-8.8368,13.2343,24.0,88,40,0.51,AO,1619755889
306,3354077,Opuwo,-18.0607,13.84,16.95,57,65,0.58,NA,1619756593
307,3601402,Savannah Bight,16.45,-85.85,27.22,88,0,0.45,HN,1619756593
308,2510573,Teguise,29.0605,-13.564,18.0,77,0,1.54,ES,1619756593
309,5478673,Meadow Lake,34.8014,-106.5436,17.0,25,1,3.6,US,1619756594
310,610298,Beyneu,45.3167,55.2,15.98,33,1,5.23,KZ,1619756594
311,1266481,Kishanpur,25.65,81.0167,40.13,6,15,2.35,IN,1619756595
312,2123979,Kuril'sk,45.2333,147.8833,3.27,95,100,9.37,RU,1619756595
313,2019884,Mogzon,51.7435,111.9606,4.6,44,100,4.83,RU,1619756596
314,1168312,Pasni,25.2631,63.471,28.31,75,45,1.21,PK,1619756596
315,2331140,Makurdi,7.7411,8.5121,26.2,70,100,2.21,NG,1619756596
316,610612,Aktau,43.65,51.2,18.0,36,0,6.0,KZ,1619756597
317,4414200,West Plains,36.7281,-91.8524,15.0,55,1,1.54,US,1619756597
318,3855075,General Pico,-35.6566,-63.7568,13.44,67,0,4.86,AR,1619756597
319,3465105,Cruz das Almas,-12.67,-39.1019,20.28,98,22,1.72,BR,1619756467
320,3131824,Vigrestad,58.5667,5.7,3.89,75,0,3.6,NO,1619756598
321,2132606,Samarai,-10.6167,150.6667,27.3,76,44,4.65,PG,1619756598
322,5117949,Freeport,40.6576,-73.5832,19.44,88,90,4.63,US,1619756328
323,515805,Oktyabr'skoye,43.0645,44.7417,13.0,82,14,1.0,RU,1619756599
324,935214,Saint-Pierre,-21.3393,55.4781,24.0,78,75,3.6,RE,1619756600
325,1160939,Iranshahr,27.2025,60.6848,30.0,26,0,0.88,IR,1619756600
326,1521762,Kurchum,48.5722,83.6542,21.35,33,58,2.4,KZ,1619756600
327,2108502,Honiara,-9.4333,159.95,28.46,76,30,1.76,SB,1619756601
328,3163146,Andenes,69.3143,16.1194,-2.0,80,75,6.17,NO,1619756601
329,2014624,Udachny,66.4167,112.4,-0.46,95,50,3.62,RU,1619756548
330,1651531,Ambon City,-3.6954,128.1814,32.0,58,40,3.09,ID,1619756602
331,3652758,Puerto Baquerizo Moreno,-0.9,-89.6,23.74,85,18,4.7,EC,1619756546
332,1630935,Polewali,-3.4324,119.3435,30.87,64,17,1.85,ID,1619756602
333,3421765,Nanortalik,60.1432,-45.2371,2.52,84,11,3.59,GL,1619756602
334,709643,Drabiv,49.963,32.1529,9.35,85,82,3.81,UA,1619756603
335,5554072,Juneau,58.3019,-134.4197,7.0,87,90,4.63,US,1619756603
336,2122090,Pevek,69.7008,170.3133,-5.49,84,100,4.5,RU,1619756604
337,2191562,Dunedin,-45.8742,170.5036,13.89,58,83,8.05,NZ,1619756604
338,2374583,Bubaque,11.2833,-15.8333,25.35,68,55,6.57,GW,1619756604
339,3870282,Talcahuano,-36.7167,-73.1167,13.0,94,90,1.54,CL,1619756415
340,780687,Berlevåg,70.8578,29.0864,-2.0,69,75,11.32,NO,1619756484
341,3374462,Mindelo,16.8901,-24.9804,22.0,78,75,7.2,CV,1619756605
342,2101169,Aitape,-3.1374,142.3475,30.23,68,35,3.38,PG,1619756605
343,4513583,Hamilton,39.1834,-84.5333,12.78,82,1,3.09,US,1619756330
344,2022083,Alekseyevsk,57.8406,108.3492,6.83,52,33,0.76,RU,1619756606
345,5134295,Rome,43.2128,-75.4557,10.0,87,90,5.66,US,1619756512
346,6113406,Prince Rupert,54.3161,-130.3201,9.0,93,90,5.14,CA,1619756606
347,471160,Voznesen'ye,61.0106,35.4781,0.04,79,15,1.23,RU,1619756607
348,682011,Chisindia,46.2833,22.1,13.0,82,20,2.57,RO,1619756607
349,2181625,Te Anau,-45.4167,167.7167,13.63,70,20,1.52,NZ,1619756608
350,1861416,Ishigaki,24.3448,124.1572,25.0,69,75,3.09,JP,1619756608
351,921786,Mitsamiouli,-11.3847,43.2844,25.0,88,20,2.06,KM,1619756608
352,3870243,Taltal,-25.4,-70.4833,16.63,85,0,0.77,CL,1619756525
353,3170094,Portoferraio,42.8115,10.3146,14.44,98,100,0.45,IT,1619756609
354,3893629,Coquimbo,-29.9533,-71.3436,13.0,88,90,1.03,CL,1619756609
355,934649,Cap Malheureux,-19.9842,57.6142,26.11,83,16,3.58,MU,1619756610
356,2322794,Suleja,9.1758,7.1808,25.25,61,97,0.49,NG,1619756610
357,1510030,Biskamzha,53.4497,89.5272,6.77,98,100,3.14,RU,1619756611
358,2137773,Vao,-22.6667,167.4833,23.85,57,97,8.92,NC,1619756522
359,763534,Nowy Sącz,49.6218,20.6971,9.44,90,73,0.45,PL,1619756611
360,2034400,Tongliao,43.6125,122.2653,13.71,15,41,1.77,CN,1619756612
361,2012530,Zhigansk,66.7697,123.3711,0.57,99,100,2.89,RU,1619756612
362,4845585,Westport,41.1415,-73.3579,19.44,88,75,2.57,US,1619756612
363,1273909,Churāchāndpur,24.3333,93.6667,28.0,61,40,1.54,IN,1619756613
364,2192362,Christchurch,-43.5333,172.6333,14.44,71,75,9.26,NZ,1619756313
365,3421319,Nuuk,64.1835,-51.7216,-2.0,100,90,2.06,GL,1619756613
366,2026023,Bukachacha,52.9833,116.9167,7.75,39,100,5.73,RU,1619756614
367,5975004,High Level,58.5169,-117.136,5.0,87,90,3.09,CA,1619756614
368,1785036,Zhangye,38.9342,100.4517,23.19,13,0,2.63,CN,1619756614
369,3904906,Santa Cruz de la Sierra,-17.8,-63.1667,17.0,77,0,2.06,BO,1619756615
370,3929611,San Jerónimo,-11.9472,-75.2829,9.97,79,100,0.55,PE,1619756615
371,3423146,Ilulissat,69.2167,-51.1,-1.0,80,100,1.97,GL,1619756615
372,1489853,Tazovsky,67.4667,78.7,-0.93,92,99,4.27,RU,1619756616
373,2618795,Klaksvík,62.2266,-6.589,2.0,75,90,0.51,FO,1619756616
374,3571913,Marsh Harbour,26.5412,-77.0636,24.22,75,74,6.32,BS,1619756617
375,6690296,Saint-Joseph,-21.3667,55.6167,24.0,78,75,3.6,RE,1619756617
376,3515876,Tepepa,20.1333,-98.1833,12.96,90,100,2.08,MX,1619756617
377,89113,Ajdabiya,30.7554,20.2263,26.12,14,23,6.01,LY,1619756618
378,3622537,Parrita,9.5201,-84.3225,20.0,88,0,3.09,CR,1619756618
379,1490796,Strezhevoy,60.7333,77.5889,4.0,81,75,5.0,RU,1619756619
380,4500920,Brigantine,39.4101,-74.3646,24.0,60,75,5.66,US,1619756619
381,895057,Binga,-17.6203,27.3414,20.09,72,7,0.36,ZW,1619756619
382,1724803,Biri,12.6833,124.3636,26.99,75,30,2.92,PH,1619756620
383,5864145,Homer,59.6425,-151.5483,8.0,76,90,3.09,US,1619756620
384,3407407,Aquiraz,-3.9014,-38.3911,26.11,89,40,1.03,BR,1619756620
385,3712076,Colón,9.3592,-79.9014,26.67,75,10,2.81,PA,1619756621
386,1529651,Altay,47.8667,88.1167,21.67,30,17,2.9,CN,1619756621
387,6445060,Sainte-Maxime,43.3,6.6333,13.33,100,95,0.69,FR,1619756621
388,2381334,Atar,20.5169,-13.0499,24.7,39,91,2.54,MR,1619756622
389,2514651,Los Llanos de Aridane,28.6585,-17.9182,17.0,72,0,3.09,ES,1619756622
390,2744042,Zandvoort,52.3749,4.5341,7.78,93,75,2.06,NL,1619756623
391,3436714,Villarrica,-25.75,-56.4333,13.53,58,0,1.62,PY,1619756623
392,259289,Corinth,37.9407,22.9573,17.78,77,0,0.79,GR,1619756623
393,157429,Kilindoni,-7.9139,39.6668,25.98,83,100,4.58,TZ,1619756624
394,3155152,Gravdal,68.1214,13.5031,0.0,80,75,2.57,NO,1619756624
395,3836669,San Rafael,-34.6177,-68.3301,16.35,58,1,4.39,AR,1619756420
396,1497393,Nizhnyaya Salda,58.0776,60.7202,4.64,55,90,5.36,RU,1619756625
397,2121025,Srednekolymsk,67.45,153.6833,-0.91,90,100,3.87,RU,1619756625
398,2521582,Arona,28.0996,-16.681,18.33,68,40,3.09,ES,1619756625
399,1803560,Lingao,19.9103,109.6859,27.87,69,91,2.48,CN,1619756626
400,2278158,Buchanan,5.8808,-10.0467,25.0,94,20,1.64,LR,1619756626
401,3372760,Praia da Vitória,38.7333,-27.0667,14.0,82,20,2.41,PT,1619756626
402,1650434,Bambanglipuro,-7.95,110.2833,29.15,69,82,3.01,ID,1619756627
403,2023584,Imeni Poliny Osipenko,52.4201,136.4853,0.84,96,100,5.8,RU,1619756627
404,1792916,Tianpeng,30.9866,103.9393,27.78,1,0,1.86,CN,1619756628
405,5491487,Silver City,32.7701,-108.2803,7.78,61,1,2.13,US,1619756628
406,561698,Gayny,60.3071,54.3241,2.43,62,75,3.15,RU,1619756628
407,1819729,Hong Kong,22.2855,114.1577,28.0,61,20,3.6,HK,1619756443
408,2100933,Ambunti,-4.2365,142.8448,34.18,47,70,1.28,PG,1619756629
409,3128883,Bañón,40.8382,-1.1909,13.0,100,75,2.57,ES,1619756629
410,2021031,Kyren,51.6828,102.1408,7.87,69,97,0.27,RU,1619756630
411,3577430,Road Town,18.4167,-64.6167,25.56,85,82,3.13,VG,1619756630
412,3386177,Trairi,-3.2778,-39.2689,23.47,92,87,2.24,BR,1619756332
413,3435038,Dolores,-36.3132,-57.6792,11.93,83,0,3.44,AR,1619756631
414,2123814,Leningradskiy,69.3833,178.4167,-4.39,84,92,7.66,RU,1619756631
415,899274,Samfya,-11.3649,29.5565,17.76,94,67,2.87,ZM,1619756631
416,5380437,Pacific Grove,36.6177,-121.9166,13.0,76,1,2.06,US,1619756632
417,5110365,Broome,42.2506,-75.833,11.67,100,90,5.66,US,1619756632
418,56166,Jilib,0.4883,42.7854,26.28,84,83,1.71,SO,1619756633
419,3924679,Vilhena,-12.7406,-60.1458,17.86,88,100,1.49,BR,1619756633
420,2019488,Namtsy,62.7161,129.6658,5.0,60,0,4.0,RU,1619756633
421,6301965,Howard Springs,-12.497,131.047,32.78,40,0,5.14,AU,1619756634
422,211647,Lodja,-3.4833,23.4333,20.93,99,100,0.98,CD,1619756568
423,2953089,Balingen,48.2752,8.8546,5.56,94,98,0.78,DE,1619756634
424,2159220,Mackay,-21.15,149.2,24.0,73,25,8.23,AU,1619756635
425,1605277,Trat,12.5,102.5,32.78,62,40,1.03,TH,1619756540
426,2294915,Takoradze,4.8845,-1.7554,26.5,81,83,1.27,GH,1619756635
427,2026786,Berezovyy,51.6667,135.7,2.55,88,100,3.47,RU,1619756636
428,3456642,Mozarlândia,-14.7447,-50.5706,21.37,89,78,2.22,BR,1619756636
429,304183,Bayir,37.2687,28.2167,12.0,62,0,1.54,TR,1619756636
430,491576,Smyshlyayevka,53.2391,50.3907,11.0,40,0,3.0,RU,1619756637
431,5826559,Green River,41.5286,-109.4662,13.33,28,1,4.12,US,1619756637
432,2013918,Ust-Maya,60.4167,134.5333,7.13,78,99,1.63,RU,1619756638
433,1506254,Gornyy,55.1153,83.9059,11.11,49,3,0.45,RU,1619756638
434,1637510,Loa Janan,-0.583,117.095,32.01,62,73,1.31,ID,1619756639
435,5919850,Chapais,49.7834,-74.8492,6.0,61,20,2.57,CA,1619756639
436,6542055,Como,45.81,9.0874,11.67,41,99,2.68,IT,1619756400
437,1855670,Nanao,37.05,136.9667,17.78,82,75,6.17,JP,1619756527
438,368246,Raja,8.4596,25.678,22.28,84,100,1.64,SS,1619756640
439,3665210,Rodrigues Alves,-7.738,-72.6509,21.07,90,12,1.1,BR,1619756640
440,370737,Malakal,9.5334,31.6605,24.74,69,94,1.64,SS,1619756640
441,3395458,Maragogi,-9.0122,-35.2225,24.91,85,89,3.61,BR,1619756641
442,949703,Thaba Nchu,-29.2093,26.839,12.0,94,90,2.57,ZA,1619756348
443,6088469,Nipawin,53.3668,-104.0009,0.0,43,1,3.6,CA,1619756514
444,5383559,Placerville,38.7296,-120.7986,20.0,32,1,2.34,US,1619756642
445,3388847,São Félix do Xingu,-6.6447,-51.995,21.46,98,87,0.67,BR,1619756642
446,1855540,Naze,28.3667,129.4833,25.0,61,20,4.63,JP,1619756611
447,494970,Sheltozero,61.3667,35.3667,0.05,80,17,2.08,RU,1619756643
448,541116,Kresttsy,58.2452,32.5165,3.48,88,100,2.77,RU,1619756415
449,2734239,Seara,41.1818,-7.8003,8.89,91,58,0.51,PT,1619756643
450,1519385,Sergeevka,53.88,67.4158,10.17,51,2,5.67,KZ,1619756644
451,3628503,San Carlos,9.6612,-68.5827,21.27,97,100,0.6,VE,1619756644
452,6113365,Prince George,53.9166,-122.753,12.78,87,90,5.66,CA,1619756527
453,2294034,Winneba,5.3511,-0.6231,27.0,89,20,2.57,GH,1619756645
454,4156975,Gonzalez,30.5816,-87.2914,23.0,94,20,2.57,US,1619756645
455,2635199,Ullapool,57.8987,-5.1604,2.78,40,16,0.45,GB,1619756646
456,2070998,Geraldton,-28.7667,114.6,22.0,43,90,6.69,AU,1619756646
457,1006984,East London,-33.0153,27.9116,17.58,72,100,5.54,ZA,1619756646
458,3401188,Curuçá,-0.7289,-47.8481,23.12,94,98,0.69,BR,1619756647
459,3982837,Sonoita,31.85,-112.8333,24.44,22,0,1.45,MX,1619756614
460,2024812,Dul'durga,50.6761,113.5931,4.96,48,100,6.97,RU,1619756647
461,3402429,Caucaia,-3.7361,-38.6531,26.11,89,40,1.03,BR,1619756648
462,86049,Jalu,29.0331,21.5482,25.02,17,0,3.78,LY,1619756624
463,1521293,Lugovoy,42.9472,72.7644,27.98,28,1,3.84,KZ,1619756648
464,3585968,El Salvador,13.8333,-88.9167,25.0,88,20,1.03,SV,1619756649
465,3430443,Necochea,-38.5473,-58.7368,13.33,83,39,3.58,AR,1619756649
466,1685615,Suba,10.8438,121.0102,28.32,70,65,3.63,PH,1619756649
467,5887916,Athabasca,54.7169,-113.2854,8.0,75,100,2.06,CA,1619756650
468,2164206,Gunnedah,-30.9833,150.25,24.44,41,0,0.45,AU,1619756650
469,337010,Gelemso,8.8167,40.5167,16.4,84,99,0.93,ET,1619756650
470,3374210,São Filipe,14.8961,-24.4956,22.5,76,64,3.46,CV,1619756651
471,542184,Krasnovishersk,60.4078,57.082,2.54,56,11,3.0,RU,1619756651
472,3448892,São João da Ponte,-15.9292,-44.0078,19.01,83,99,3.1,BR,1619756651
473,1526273,Nur-Sultan,51.1801,71.446,12.0,32,0,4.0,KZ,1619756652
474,3899695,Ancud,-41.8697,-73.8203,13.89,94,90,5.14,CL,1619756652
475,3421719,Narsaq,60.9167,-46.05,3.0,81,75,2.01,GL,1619756653
476,2172880,Byron Bay,-28.65,153.6167,22.0,78,75,4.12,AU,1619756653
477,1736660,Kota Belud,6.351,116.4305,32.0,74,20,2.06,MY,1619756653
478,1710387,Jaena,11.4167,122.4,31.89,43,14,2.96,PH,1619756654
479,5975034,High Prairie,55.4334,-116.4858,13.0,54,100,3.6,CA,1619756654
480,6945992,Betsiamites,48.9413,-68.646,5.0,70,1,2.57,CA,1619756655
481,1511646,Andra,62.5147,65.8878,1.81,79,100,3.97,RU,1619756655
482,3557923,Guáimaro,21.05,-77.35,25.0,83,1,4.12,CU,1619756655
483,3141667,Roald,62.5833,6.1333,3.0,75,0,3.09,NO,1619756619
484,3354247,Ondangwa,-17.9167,15.95,21.67,39,78,3.96,NA,1619756656
485,3405006,Bragança,-1.0536,-46.7656,22.59,98,99,0.62,BR,1619756656
486,1718234,Caruray,10.3094,119.0128,32.0,62,20,5.14,PH,1619756656
487,4219762,Rome,34.257,-85.1647,22.0,83,20,3.09,US,1619756577
488,2522325,Agüimes,27.9054,-15.4461,18.0,82,20,1.03,ES,1619756657
489,2013465,Verkhoyansk,67.5447,133.385,0.09,83,96,0.99,RU,1619756657
490,5364271,Laguna,38.421,-121.4238,22.0,37,1,3.09,US,1619756445
491,3416888,Grindavik,63.8424,-22.4338,4.0,87,75,2.57,IS,1619756658
492,4787534,Sterling,39.0062,-77.4286,20.0,83,90,3.6,US,1619756658
493,6453316,Tromsø,69.6496,18.957,-2.78,74,75,3.09,NO,1619756659
494,1856068,Nago,26.5881,127.9761,24.0,73,40,4.63,JP,1619756659
495,6316343,Alta Floresta,-9.8756,-56.0861,20.85,96,79,0.64,BR,1619756660
496,5853992,Wahiawā,21.5028,-158.0236,24.44,68,75,4.63,US,1619756660
497,6179652,Weyburn,49.6668,-103.8511,7.0,42,92,2.57,CA,1619756660
498,1337605,Mahibadhoo,3.7833,72.9667,28.57,70,7,1.97,MV,1619756661
499,2062276,Roebourne,-20.7833,117.1333,34.0,21,0,3.01,AU,1619756661
500,3897774,Buin,-33.7333,-70.75,17.22,93,78,3.09,CL,1619756661
501,2270385,Camacha,33.0833,-16.3333,15.0,72,75,8.75,PT,1619756662
502,3429732,Puerto Rico,-26.796,-55.024,12.08,54,0,0.95,AR,1619756662
503,7671223,Kloulklubed,7.0419,134.2556,30.0,74,75,4.12,PW,1619756662
504,3628473,San Cristobal,7.7669,-72.225,25.0,88,75,4.63,VE,1619756663
505,2019935,Mnogovershinnyy,53.9353,139.9242,0.36,77,95,2.59,RU,1619756663
506,1250161,Batticaloa,7.7102,81.6924,29.76,66,71,2.53,LK,1619756664
507,1831112,Kampot,10.6167,104.1833,31.0,79,40,3.09,KH,1619756664
508,866062,Iskateley,67.6803,53.1512,-1.59,77,91,4.36,RU,1619756664
509,1061335,Mananjary,-21.2167,48.3333,21.81,93,33,1.61,MG,1619756665
510,1847947,Shingū,33.7333,135.9833,20.0,73,20,4.63,JP,1619756665
511,1519327,Shakhtinsk,49.71,72.5872,10.0,40,0,7.0,KZ,1619756665
512,487928,Novikovo,51.1537,37.8879,8.4,66,100,3.95,RU,1619756666
513,2206874,Waipawa,-41.4122,175.5153,17.0,72,100,7.2,NZ,1619756666
514,1734199,Tawao,4.2498,117.8871,32.0,70,20,3.09,MY,1619756667
515,2191911,Dargaville,-35.9333,173.8833,18.12,66,46,3.61,NZ,1619756667
516,1626542,Sorong,-0.8833,131.25,28.1,74,98,0.91,ID,1619756667
517,2315026,Kasongo-Lunda,-6.4667,16.8167,20.81,97,99,0.28,CD,1619756668
518,1637001,Luwuk,-0.9516,122.7875,30.64,62,30,1.5,ID,1619756668
519,443187,Karaman Province,37.0833,33.25,16.5,49,71,0.66,TR,1619756668
520,3385935,Tucuruí,-3.7661,-49.6725,23.1,94,100,0.67,BR,1619756669
521,347634,Ţahţā,26.7693,31.5021,22.0,17,0,2.06,EG,1619756669
522,2063042,Port Hedland,-20.3167,118.5667,34.0,31,0,5.66,AU,1619756670
523,3372783,Ponta Delgada,37.7333,-25.6667,13.0,82,75,3.09,PT,1619756612
524,5640350,Billings Metropolitan Area,45.7833,-108.5007,17.0,36,20,4.12,US,1619756670
525,5374376,Monterey,36.2505,-121.2516,14.44,24,8,0.89,US,1619756506
526,194451,Kangema,-0.6833,36.9667,13.33,83,93,1.79,KE,1619756671
527,3191648,Zlobin,45.2924,14.6541,14.44,94,75,3.6,HR,1619756671
528,1260777,Pālanpur,24.1667,72.4333,32.67,32,4,3.01,IN,1619756671
529,3489657,Lucea,18.451,-78.1736,24.0,83,20,1.03,JM,1619756459
530,3664078,Humaitá,-7.5061,-63.0208,23.01,97,100,0.59,BR,1619756672
531,1153035,Kathu,7.9178,98.3332,31.0,66,20,4.12,TH,1619756672
532,2030065,Mandalgovi,45.7625,106.2708,5.69,44,100,6.54,MN,1619756391
533,1501377,Kungurtug,50.5994,97.5228,9.07,71,100,0.67,RU,1619756492
534,2063030,Port Pirie,-33.1833,138.0167,27.0,19,2,7.2,AU,1619756673
535,118063,Sabzawār,36.2126,57.6819,21.0,52,0,6.17,IR,1619756673
536,2276492,Harper,4.375,-7.7169,26.25,84,92,2.23,LR,1619756674
537,1267390,Kavaratti,10.5669,72.642,29.08,74,24,2.72,IN,1619756674
538,3664539,Coari,-4.085,-63.1414,22.54,97,100,0.42,BR,1619756674
539,1800101,Nandu,22.8525,110.8233,27.22,67,79,1.54,CN,1619756675
540,6255012,Flinders,-34.5833,150.8552,23.33,65,7,1.79,AU,1619756481
541,2980080,Saint-François,46.4154,3.9054,8.33,100,90,3.09,FR,1619756675
542,5959803,Capreol,46.706,-80.9225,12.0,58,90,2.57,CA,1619756676
543,2019867,Mokhsogollokh,61.4681,128.9203,3.32,84,100,2.9,RU,1619756676
544,5063646,Beatrice,40.2681,-96.747,12.22,50,1,1.76,US,1619756677
545,3449502,Santo Antônio do Leverger,-15.8656,-56.0767,22.0,78,0,2.57,BR,1619756677
546,3653967,Muisne,0.6,-80.0333,24.53,86,100,1.56,EC,1619756677
547,1266924,Kharhiāl,20.2833,82.7667,36.72,22,1,2.61,IN,1619756678
548,305681,Kumluca,36.3703,30.2869,22.1,44,3,0.89,TR,1619756678
549,553766,Kamenka,51.3223,42.7678,8.33,65,99,3.61,RU,1619756543
550,706803,Karapyshi,49.6424,30.79,9.14,79,98,4.66,UA,1619756679
551,3933104,Pangoa,-12.1167,-73.0,17.15,94,5,0.78,PE,1619756680
552,1517637,Ushtobe,45.2514,77.9838,29.25,20,44,5.82,KZ,1619756680
553,3453060,Pontes e Lacerda,-15.2261,-59.3353,18.76,73,100,1.3,BR,1619756680
554,5779548,Payson,40.0444,-111.7321,17.0,34,1,3.6,US,1619756531
555,6137462,Saint-Augustin,51.226,-58.6502,4.26,86,100,1.97,CA,1619756681
556,615460,Pitsunda,43.1592,40.3378,16.0,67,44,2.0,GE,1619756681
557,4034188,Moerai,-22.4333,-151.3333,25.96,78,67,6.55,PF,1619756567
558,6111862,Port Hardy,50.6996,-127.4199,10.0,100,90,1.03,CA,1619756682
559,5570160,Redding,40.5865,-122.3917,24.0,33,1,1.13,US,1619756682
560,670059,Poiana Mărului (Brașov),45.6,25.3,9.44,83,95,0.89,RO,1619756683
561,4034496,Fare,-16.7,-151.0167,27.38,71,100,1.13,PF,1619756683
562,6620339,Karratha,-20.7377,116.8463,34.37,20,0,2.63,AU,1619756684
563,6050066,La Ronge,55.1001,-105.2842,1.0,47,18,1.54,CA,1619756684
564,3374166,Tarrafal,15.2833,-23.7667,21.0,78,20,5.66,CV,1619756684
565,514706,Osa,57.2829,55.4567,4.7,57,10,4.65,RU,1619756685
566,3837056,San Luis,-33.295,-66.3356,14.47,43,0,4.3,AR,1619756538
567,6150293,Smoky Lake,54.1169,-112.4686,8.0,61,100,4.63,CA,1619756685
568,1524243,Georgiyevka,43.0369,74.7114,26.0,29,0,5.0,KZ,1619756686
569,5861897,Fairbanks,64.8378,-147.7164,5.0,87,90,6.69,US,1619756686
570,1253628,Ginda,30.6945,78.4932,24.7,22,6,2.7,IN,1619756686
571,2013727,Vanavara,60.34,102.2797,5.91,51,59,4.16,RU,1619756687
572,1215502,Banda Aceh,5.5577,95.3222,29.33,68,100,1.19,ID,1619756687
