,ID,City,Lat,Lng,Max Temp,Humidity,Cloudiness,Wind Speed,Country,Date
0,4033557,Tautira,-17.7333,-149.15,30.0,62,40,1.54,PF,1619660629
1,1006984,East London,-33.0153,27.9116,19.65,76,100,2.64,ZA,1619660559
2,1503726,Kharp,66.8014,65.8081,-4.81,92,100,3.03,RU,1619660630
3,2019323,Nerchinskiy Zavod,51.3088,119.61,0.73,74,100,4.41,RU,1619660419
4,3421765,Nanortalik,60.1432,-45.2371,1.75,94,59,2.26,GL,1619660512
5,1282256,Hithadhoo,-0.6,73.0833,28.81,70,79,4.68,MV,1619660319
6,1214488,Meulaboh,4.1363,96.1285,26.82,83,93,1.0,ID,1619660631
7,1626099,Sumenep,-7.0167,113.8667,28.93,67,11,3.92,ID,1619660632
8,4026082,Lázaro Cárdenas,17.9583,-102.2,25.15,81,100,3.63,MX,1619660632
9,4030556,Rikitea,-23.1203,-134.9692,24.4,64,76,4.46,PF,1619660280
10,3466165,Cidreira,-30.1811,-50.2056,17.7,83,16,3.45,BR,1619660486
11,3838859,Río Gallegos,-51.6226,-69.2181,7.0,53,0,12.35,AR,1619660633
12,1649150,Bengkulu,-3.8004,102.2655,27.58,74,81,0.53,ID,1619660310
13,3652764,Puerto Ayora,-0.7393,-90.3518,24.04,88,29,2.48,EC,1619660279
14,2155415,New Norfolk,-42.7826,147.0587,17.22,78,42,1.34,AU,1619660515
15,5880054,Barrow,71.2906,-156.7887,-7.0,86,90,4.63,US,1619660491
16,2522437,Adeje,28.1227,-16.726,18.33,82,20,2.06,ES,1619660634
17,2017155,Saskylakh,71.9167,114.0833,-1.88,84,89,3.52,RU,1619660368
18,986717,Kruisfontein,-34.0033,24.7314,17.22,76,100,0.89,ZA,1619660346
19,546105,Nikolskoye,59.7035,30.7861,2.22,75,0,2.0,RU,1619660508
20,2163355,Hobart,-42.8794,147.3294,17.22,63,75,3.6,AU,1619660421
21,5848280,Kapaa,22.0752,-159.319,23.0,88,90,6.69,US,1619660461
22,5557293,Sitka,57.0531,-135.33,10.0,66,90,4.63,US,1619660501
23,3414079,Olafsvik,64.8945,-23.7142,5.01,69,30,1.15,IS,1619660635
24,5924351,Clyde River,70.4692,-68.5914,-6.0,100,90,4.12,CA,1619660508
25,2075265,Busselton,-33.65,115.3333,19.44,93,100,1.34,AU,1619660452
26,5106841,Albany,42.6001,-73.9662,13.89,88,78,0.96,US,1619660466
27,4034551,Faanui,-16.4833,-151.75,27.74,72,82,4.91,PF,1619660410
28,2270385,Camacha,33.0833,-16.3333,16.0,77,40,2.06,PT,1619660636
29,935215,Saint-Philippe,-21.3585,55.7679,25.0,78,0,6.17,RE,1619660483
30,2108857,Gizo Government Station,-8.103,156.8419,28.49,70,94,3.59,SB,1619660636
31,2063042,Port Hedland,-20.3167,118.5667,33.0,16,0,7.2,AU,1619660637
32,2015306,Tiksi,71.6872,128.8694,-1.1,85,16,3.36,RU,1619660453
33,3883457,Lebu,-37.6167,-73.65,12.6,92,98,2.15,CL,1619660416
34,5866583,Saint Paul Harbor,57.79,-152.4072,6.0,93,90,3.09,US,1619660509
35,3369157,Cape Town,-33.9258,18.4232,13.89,93,20,2.06,ZA,1619660448
36,3833367,Ushuaia,-54.8,-68.3,3.0,81,75,11.32,AR,1619660482
37,3471451,Arraial do Cabo,-22.9661,-42.0278,20.0,100,75,1.03,BR,1619660480
38,964432,Port Alfred,-33.5906,26.891,18.87,88,100,8.1,ZA,1619660481
39,1797132,Rizhao,35.4275,119.4553,19.9,45,78,6.96,CN,1619660638
40,3874787,Punta Arenas,-53.15,-70.9167,5.0,81,40,9.26,CL,1619660274
41,6170031,Tuktoyaktuk,69.4541,-133.0374,-1.0,74,20,6.69,CA,1619660299
42,690556,Uyutnoye,45.1994,33.3014,9.44,68,100,6.0,UA,1619660639
43,5364271,Laguna,38.421,-121.4238,31.0,10,1,4.12,US,1619660639
44,5122534,Jamestown,42.097,-79.2353,18.0,88,90,2.57,US,1619660336
45,1507390,Dikson,73.5069,80.5464,-8.42,93,98,3.89,RU,1619660550
46,5554428,Ketchikan,55.3422,-131.6461,10.0,87,90,4.12,US,1619660615
47,3361934,Saldanha,-33.0117,17.9442,10.0,87,0,1.54,ZA,1619660342
48,6355222,Yulara,-25.2406,130.9889,22.0,26,0,5.66,AU,1619660530
49,2178753,Kirakira,-10.4544,161.9205,28.5,63,27,1.89,SB,1619660641
50,1215502,Banda Aceh,5.5577,95.3222,28.53,71,100,0.94,ID,1619660424
51,5391295,Salinas,36.6777,-121.6555,19.0,48,1,4.63,US,1619660638
52,2264557,Ponta do Sol,32.6667,-17.1,15.0,81,62,0.45,PT,1619660517
53,6201424,Mataura,-46.1927,168.8643,13.33,87,96,4.02,NZ,1619660475
54,1562414,Vung Tau,10.346,107.0843,29.54,67,100,7.73,VN,1619660642
55,2123814,Leningradskiy,69.3833,178.4167,-3.18,70,100,0.61,RU,1619660500
56,3430863,Mar del Plata,-38.0023,-57.5575,17.78,88,0,3.6,AR,1619660264
57,2986626,Plouzané,48.3833,-4.6167,7.0,93,98,2.57,FR,1619660530
58,2167426,Emerald,-23.5333,148.1667,25.0,47,75,2.57,AU,1619660642
59,2093967,Kimbe,-5.5502,150.1429,31.39,58,67,2.26,PG,1619660643
60,2206939,Bluff,-46.6,168.3333,13.33,87,92,4.02,NZ,1619660542
61,5282297,Bethel,41.3712,-73.414,19.0,63,90,4.12,US,1619660471
62,4020109,Atuona,-9.8,-139.0333,26.5,72,44,5.19,PF,1619660507
63,5019116,Brainerd,46.358,-94.2008,17.0,29,1,2.69,US,1619660413
64,780687,Berlevåg,70.8578,29.0864,-1.81,72,100,7.56,NO,1619660644
65,1529376,Korla,41.7597,86.1469,21.03,18,0,0.68,CN,1619660492
66,3576994,Cockburn Town,21.4612,-71.1419,25.59,75,29,9.41,TC,1619660599
67,3374210,São Filipe,14.8961,-24.4956,22.53,78,77,3.74,CV,1619660555
68,3397967,Itaituba,-4.2761,-55.9836,22.98,98,100,0.25,BR,1619660645
69,3386213,Touros,-5.1989,-35.4608,25.0,83,40,1.03,BR,1619660645
70,2374583,Bubaque,11.2833,-15.8333,25.34,70,53,6.28,GW,1619660645
71,3450872,Rosário Oeste,-14.8361,-56.4275,22.35,69,100,1.61,BR,1619660646
72,3517970,Pochutla,15.7432,-96.4661,28.33,74,90,5.14,MX,1619660646
73,2126123,Chokurdakh,70.6333,147.9167,-4.56,91,97,5.93,RU,1619660513
74,3372783,Ponta Delgada,37.7333,-25.6667,14.0,72,75,2.06,PT,1619660646
75,5611730,Weiser,44.251,-116.9693,24.0,19,1,1.02,US,1619660647
76,258175,Lixouri,38.2019,20.4314,17.78,66,0,1.16,GR,1619660647
77,5983720,Iqaluit,63.7506,-68.5145,-2.0,93,90,4.12,CA,1619660530
78,6620339,Karratha,-20.7377,116.8463,31.49,19,0,5.68,AU,1619660503
79,3982837,Sonoita,31.85,-112.8333,25.56,19,17,0.45,MX,1619660648
80,3893726,Constitución,-35.3333,-72.4167,14.46,71,0,3.08,CL,1619660519
81,2460954,Araouane,18.9048,-3.5265,31.51,13,89,5.86,ML,1619660648
82,2110227,Butaritari,3.0707,172.7902,27.5,79,89,4.9,KI,1619660463
83,2738381,Lata,40.1629,-8.3327,14.0,62,75,4.12,PT,1619660649
84,1056899,Sambava,-14.2667,50.1667,23.73,88,14,4.47,MG,1619660649
85,1213855,Sibolga,1.7427,98.7792,27.43,79,100,0.12,ID,1619660545
86,2136825,Isangel,-19.55,169.2667,28.0,47,20,2.57,VU,1619660650
87,1015776,Bredasdorp,-34.5322,20.0403,12.0,82,0,3.09,ZA,1619660464
88,1259385,Port Blair,11.6667,92.75,27.0,83,40,0.51,IN,1619660517
89,6325479,Beaupré,47.0443,-70.8953,12.78,76,100,0.51,CA,1619660650
90,2180991,Tolaga Bay,-38.3667,178.3,16.87,55,5,4.37,NZ,1619660651
91,1853140,Sakata,38.9167,139.855,14.0,94,75,2.57,JP,1619660651
92,3792382,Cartagena del Chairá,1.3349,-74.8429,21.76,94,100,0.67,CO,1619660652
93,2070998,Geraldton,-28.7667,114.6,22.0,43,100,3.09,AU,1619660538
94,100926,Umluj,25.0213,37.2685,26.24,48,0,3.76,SA,1619660652
95,2514651,Los Llanos de Aridane,28.6585,-17.9182,19.0,59,0,2.57,ES,1619660480
96,686090,Asău,46.4333,26.4,5.0,62,81,1.32,RO,1619660457
97,3443061,Chui,-33.6971,-53.4616,12.76,87,3,1.33,UY,1619660470
98,1254709,Tezu,27.9167,96.1667,32.84,21,64,1.24,IN,1619660653
99,2125693,Evensk,61.95,159.2333,0.25,75,35,2.05,RU,1619660506
100,2160517,Launceston,-41.45,147.1667,15.0,77,40,5.14,AU,1619660653
101,108410,Riyadh,24.6877,46.7219,26.0,34,75,3.6,SA,1619660654
102,218680,Boende,-0.2167,20.8667,21.09,99,100,0.23,CD,1619660654
103,3428068,San Vicente,-26.6167,-54.1333,8.66,57,0,1.56,AR,1619660654
104,3939168,Huarmey,-10.0681,-78.1522,19.64,88,38,3.89,PE,1619660614
105,2259655,Impfondo,1.6381,18.0667,21.98,98,100,0.65,CG,1619660655
106,934322,Mahébourg,-20.4081,57.7,25.0,88,75,3.6,MU,1619660519
107,498785,Sapernoye,60.7167,29.9505,0.0,83,98,1.69,RU,1619660655
108,2510573,Teguise,29.0605,-13.564,18.0,77,0,1.03,ES,1619660656
109,6165406,Thompson,55.7435,-97.8558,0.0,29,20,5.14,CA,1619660532
110,3932145,Pisco,-13.7,-76.2167,19.0,82,20,2.06,PE,1619660378
111,3558315,Gibara,21.1097,-76.1317,26.0,73,40,6.17,CU,1619660656
112,5935341,Dauphin,51.1494,-100.0502,5.0,38,1,2.06,CA,1619660657
113,3420768,Qasigiannguit,68.8193,-51.1922,1.0,75,96,4.63,GL,1619660550
114,3421193,Paamiut,61.994,-49.6678,2.37,79,100,1.61,GL,1619660657
115,3437443,Pozo Colorado,-23.4923,-58.7972,16.36,57,98,3.23,PY,1619660658
116,3988392,Rosarito,32.3333,-117.0333,21.0,64,1,5.14,MX,1619660658
117,88533,Awjilah,29.1081,21.2869,24.66,11,8,4.88,LY,1619660658
118,2206894,Hokitika,-42.7167,170.9667,12.13,70,100,0.55,NZ,1619660659
119,4726521,San Patricio,28.017,-97.5169,26.0,83,90,8.23,US,1619660659
120,3174367,Macomer,40.262,8.7699,12.78,100,40,1.03,IT,1619660659
121,3662927,Pauini,-7.7136,-66.9764,22.3,98,100,1.37,BR,1619660660
122,3899695,Ancud,-41.8697,-73.8203,15.0,100,90,5.14,CL,1619660660
123,3366880,Hermanus,-34.4187,19.2345,12.78,96,22,0.84,ZA,1619660466
124,1737486,Bintulu,3.1667,113.0333,29.0,79,20,0.51,MY,1619660661
125,5563397,Eureka,40.8021,-124.1637,17.22,87,75,3.6,US,1619660661
126,462203,Zolotkovo,55.5281,41.1053,0.17,97,26,2.55,RU,1619660661
127,2094027,Kieta,-6.2167,155.6333,27.57,80,100,0.19,PG,1619660662
128,5392967,Santa Barbara,34.7333,-120.0343,22.0,30,1,3.09,US,1619660662
129,3694112,Paita,-5.0892,-81.1144,20.98,77,90,6.45,PE,1619660662
130,2028462,Ulaanbaatar,47.9077,106.8832,1.0,37,40,3.0,MN,1619660519
131,3423146,Ilulissat,69.2167,-51.1,1.0,75,100,4.63,GL,1619660663
132,2444995,Filingué,14.3521,3.3168,30.56,12,15,2.17,NE,1619660663
133,3372472,Vila Franca do Campo,37.7167,-25.4333,14.0,72,75,2.06,PT,1619660547
134,5059430,Grand Forks,47.9417,-97.4337,10.0,62,90,8.23,US,1619660383
135,1695546,Pandan,14.0453,124.1694,27.38,67,29,2.37,PH,1619660664
136,1651810,Airai,-8.9266,125.4092,23.65,41,48,0.89,TL,1619660482
137,2019867,Mokhsogollokh,61.4681,128.9203,-0.04,68,70,1.52,RU,1619660665
138,4031742,Egvekinot,66.3167,-179.1667,-5.58,86,82,1.13,RU,1619660665
139,2194098,Ahipara,-35.1667,173.1667,18.14,56,10,4.42,NZ,1619660553
140,2022454,Khingansk,49.1167,131.1833,9.28,24,3,2.51,RU,1619660666
141,4529987,Bartlesville,36.7473,-95.9808,21.0,88,90,1.54,US,1619660545
142,4032243,Vaini,-21.2,-175.2,27.0,83,75,3.09,TO,1619660281
143,2074865,Carnarvon,-24.8667,113.6333,23.0,49,0,2.57,AU,1619660521
144,6167817,Torbay,47.6666,-52.7314,3.89,87,90,8.23,CA,1619660483
145,5969025,Haines Junction,60.7522,-137.5108,7.0,33,100,3.6,CA,1619660496
146,4035715,Avarua,-21.2078,-159.775,29.0,74,40,3.09,CK,1619660474
147,4174715,Tallahassee,30.4383,-84.2807,23.0,68,20,1.82,US,1619660448
148,336745,Gewanē,10.1664,40.6453,21.96,94,100,2.73,ET,1619660667
149,1513491,Yangi Marg`ilon,40.4272,71.7189,19.0,32,0,4.12,UZ,1619660540
150,1153035,Kathu,7.9178,98.3332,31.11,79,20,1.54,TH,1619660668
151,5287262,Buckeye,33.3703,-112.5838,26.0,25,78,5.14,US,1619660509
152,1106677,Bambous Virieux,-20.3428,57.7575,25.0,88,75,3.6,MU,1619660486
153,2129766,Kamiiso,41.8167,140.65,12.0,76,75,0.51,JP,1619660586
154,1855540,Naze,28.3667,129.4833,22.0,94,75,11.32,JP,1619660631
155,1490796,Strezhevoy,60.7333,77.5889,4.0,75,0,3.0,RU,1619660669
156,362973,Abnūb,27.2696,31.1511,20.0,40,0,1.91,EG,1619660669
157,2094342,Kavieng,-2.5744,150.7967,29.28,69,91,3.78,PG,1619660465
158,5314328,Sierra Vista,31.5545,-110.3037,13.33,50,90,5.14,US,1619660445
159,4115412,Hot Springs,34.5037,-93.0552,26.0,73,90,3.09,US,1619660670
160,3448903,São João da Barra,-21.6403,-41.0511,23.24,72,100,2.98,BR,1619660413
161,933995,Souillac,-20.5167,57.5167,25.0,88,75,3.6,MU,1619660494
162,3388847,São Félix do Xingu,-6.6447,-51.995,21.72,98,97,0.61,BR,1619660484
163,53372,Oodweyne,9.4092,45.064,22.75,70,72,2.76,SO,1619660671
164,286987,Nizwá,22.9333,57.5333,28.19,27,100,1.65,OM,1619660671
165,5855927,Hilo,19.7297,-155.09,28.0,54,90,3.09,US,1619660467
166,3831208,Qaanaaq,77.484,-69.3632,-4.08,89,100,1.6,GL,1619660513
167,2450173,Taoudenni,22.6783,-3.9836,32.34,18,11,5.18,ML,1619660556
168,2128975,Nemuro,43.3236,145.575,16.0,48,75,2.57,JP,1619660672
169,2109528,Buala,-8.145,159.5921,27.99,76,98,1.93,SB,1619660672
170,359792,Aswān,24.0934,32.907,26.53,18,0,4.69,EG,1619660481
171,4031574,Provideniya,64.3833,-173.3,1.0,60,20,7.0,RU,1619660489
172,2412408,Nioro,13.35,-15.75,25.15,35,5,3.91,GM,1619660473
173,3433899,Formosa,-26.1775,-58.1781,14.0,100,0,1.54,AR,1619660564
174,2961459,Skibbereen,51.55,-9.2667,6.0,70,75,3.09,IE,1619660673
175,701802,Markova,48.6758,24.4138,5.39,89,99,1.04,UA,1619660674
176,2618795,Klaksvík,62.2266,-6.589,3.0,81,90,0.51,FO,1619660494
177,2077895,Alice Springs,-23.7,133.8833,23.33,30,0,5.66,AU,1619660510
178,2071860,Esperance,-33.8667,121.9,25.0,22,96,9.77,AU,1619660277
179,3424607,Tasiilaq,65.6145,-37.6368,0.0,93,90,1.54,GL,1619660551
180,371745,Kutum,14.2,24.6667,24.29,15,100,2.59,SD,1619660675
181,3461733,Guiratinga,-16.3494,-53.7583,23.44,62,100,0.47,BR,1619660675
182,3470137,Belmonte,-15.8631,-38.8828,26.0,78,40,1.54,BR,1619660555
183,6185377,Yellowknife,62.456,-114.3525,-4.0,54,75,6.69,CA,1619660225
184,3996426,Matamoros,25.5333,-103.25,36.0,9,75,10.29,MX,1619660676
185,2173911,Broken Hill,-31.95,141.4333,18.0,42,0,3.6,AU,1619660493
186,1802068,Lujiang,31.2581,117.2817,23.33,40,0,7.0,CN,1619660676
187,3664980,Boa Vista,2.8197,-60.6733,29.0,70,20,1.03,BR,1619660677
188,157429,Kilindoni,-7.9139,39.6668,26.55,83,24,5.9,TZ,1619660677
189,6180550,Whitehorse,60.7161,-135.0538,5.0,48,75,6.69,CA,1619660472
190,6148373,Sioux Lookout,50.1001,-91.917,14.0,33,90,1.54,CA,1619660555
191,5972291,Havre-St-Pierre,50.2334,-63.5986,5.0,93,90,2.06,CA,1619660678
192,1503153,Klyuchi,52.2667,79.1667,12.9,73,76,3.86,RU,1619660512
193,2022572,Khatanga,71.9667,102.5,0.36,90,100,3.42,RU,1619660310
194,102527,Sakakah,29.9697,40.2064,18.0,13,0,3.6,SA,1619660679
195,1804169,Lengshuijiang,27.6881,111.4294,21.71,63,94,1.65,CN,1619660679
196,2180815,Tuatapere,-46.1333,167.6833,13.33,87,99,4.02,NZ,1619660541
197,2120591,Tilichiki,60.4667,166.1,0.02,98,100,1.93,RU,1619660680
198,2126199,Cherskiy,68.75,161.3,-0.62,97,100,3.99,RU,1619660287
199,2122090,Pevek,69.7008,170.3133,-5.09,78,100,2.85,RU,1619660524
200,3580477,West Bay,19.3667,-81.4167,27.22,74,20,2.06,KY,1619660680
201,3699832,Aguas Verdes,-3.4814,-80.245,23.81,87,97,2.14,PE,1619660681
202,479619,Udimskiy,61.1417,45.9144,-1.77,90,100,2.63,RU,1619660681
203,146209,Paralímni,35.0375,33.9833,16.11,67,0,1.54,CY,1619660681
204,614622,Gagra,43.3283,40.2239,14.44,71,8,3.0,GE,1619660682
205,5870133,Nome,64.5011,-165.4064,0.0,64,40,4.12,US,1619660681
206,1847947,Shingū,33.7333,135.9833,16.0,94,75,2.57,JP,1619660676
207,2347758,Bara,10.3744,10.7288,26.29,23,99,1.9,NG,1619660682
208,777019,Vardø,70.3705,31.1107,-2.05,74,100,7.72,NO,1619660499
209,3445026,Vila Velha,-20.3297,-40.2925,24.0,78,75,2.06,BR,1619660561
210,535438,Levokumskoye,44.8219,44.6606,8.84,84,48,4.05,RU,1619660683
211,3418910,Upernavik,72.7868,-56.1549,-7.87,95,9,2.05,GL,1619660684
212,204953,Tshikapa,-6.4167,20.8,22.52,87,100,0.73,CD,1619660684
213,415189,Aden,12.7794,45.0367,28.5,74,97,4.41,YE,1619660582
214,3372707,Ribeira Grande,38.5167,-28.7,15.01,71,30,6.14,PT,1619660685
215,1260771,Palāsa,18.7667,84.4167,29.01,71,77,3.96,IN,1619660685
216,609919,Quryq,43.2,51.65,17.37,34,100,7.01,KZ,1619660676
217,4696233,Harlingen,26.1906,-97.6961,28.0,78,1,10.29,US,1619660410
218,1244926,Hambantota,6.1241,81.1185,27.77,78,91,4.22,LK,1619660663
219,4021858,Guerrero Negro,27.9769,-114.0611,16.05,74,0,8.15,MX,1619660533
220,3466704,Castro,-24.7911,-50.0119,10.72,91,11,2.15,BR,1619660508
221,2160413,Leeton,-34.5667,146.4,21.0,40,2,2.06,AU,1619660686
222,5044290,Saint Anthony,45.0205,-93.218,16.0,41,1,1.58,US,1619660554
223,3440777,Rocha,-34.4833,-54.3333,12.02,89,0,1.64,UY,1619660487
224,1018673,Bloemhof,-27.6469,25.607,15.33,31,5,4.12,ZA,1619660687
225,5380420,Pacifica,37.6138,-122.4869,22.0,35,20,9.77,US,1619660367
226,1490256,Talnakh,69.4865,88.3972,0.48,99,100,3.91,RU,1619660511
227,1078553,Ampanihy,-24.7,44.75,20.7,75,0,1.48,MG,1619660475
228,2208248,Kaitangata,-46.2817,169.8464,16.11,59,95,2.24,NZ,1619660459
229,3115824,Muros,42.7762,-9.0603,8.33,82,11,3.56,ES,1619660688
230,3598787,Champerico,14.3,-91.9167,18.89,95,80,0.3,GT,1619660688
231,3839307,Rawson,-43.3002,-65.1023,18.29,61,48,5.26,AR,1619660688
232,1852357,Shimoda,34.6667,138.95,19.44,94,75,6.69,JP,1619660689
233,6089245,Norman Wells,65.282,-126.8329,0.0,51,1,9.26,CA,1619660428
234,4013679,Coahuayana Viejo,18.7333,-103.6833,23.13,89,15,1.12,MX,1619660420
235,1267390,Kavaratti,10.5669,72.642,29.03,68,1,1.95,IN,1619660689
236,964420,Port Elizabeth,-33.918,25.5701,16.0,82,0,9.26,ZA,1619660527
237,3870282,Talcahuano,-36.7167,-73.1167,14.0,94,0,3.6,CL,1619660690
238,323828,Anamur,36.0751,32.8369,16.0,94,20,0.51,TR,1619660691
239,2303611,Esim,4.8699,-2.2405,26.68,84,100,2.33,GH,1619660691
240,8079926,Labuhan,-6.8844,112.2051,28.13,72,56,2.45,ID,1619660631
241,3175096,Laas,46.6166,10.7002,12.78,87,75,2.06,IT,1619660535
242,2122293,Ozernovskiy,51.5,156.5167,1.9,93,100,3.26,RU,1619660692
243,3526756,Isla Mujeres,21.2311,-86.731,27.78,74,75,3.6,MX,1619660692
244,2012780,Zabaykal'sk,49.6333,117.3167,-1.54,84,100,7.19,RU,1619660693
245,5592562,Emmett,43.8735,-116.4993,22.0,24,1,3.09,US,1619660693
246,1684803,Tabuk,17.4189,121.4443,30.27,53,21,2.53,PH,1619660599
247,3985710,Cabo San Lucas,22.8909,-109.9124,22.22,68,75,3.09,MX,1619660693
248,1646698,Cikampek,-6.4197,107.4558,28.0,78,73,1.54,ID,1619660694
249,2221530,Tibati,6.4667,12.6333,20.7,84,100,0.31,CM,1619660694
250,3984997,San Quintín,30.4833,-115.95,16.26,73,0,4.0,MX,1619660552
251,2092164,Lorengau,-2.0226,147.2712,30.1,65,98,2.85,PG,1619660537
252,3383434,Nieuw Amsterdam,5.8833,-55.0833,25.56,92,100,3.52,SR,1619660695
253,5229794,Mitchell,43.7094,-98.0298,16.0,39,1,1.19,US,1619660695
254,1819729,Hong Kong,22.2855,114.1577,22.78,79,67,3.15,HK,1619660333
255,3617154,Puerto Cabezas,14.0351,-83.3888,25.62,76,6,4.36,NI,1619660696
256,89113,Ajdabiya,30.7554,20.2263,25.32,12,1,5.63,LY,1619660696
257,5861897,Fairbanks,64.8378,-147.7164,12.78,25,1,1.54,US,1619660296
258,1633419,Padang,-0.9492,100.3543,26.0,94,75,3.09,ID,1619660497
259,702878,Lokachi,50.737,24.6494,3.33,83,68,0.89,UA,1619660697
260,2152659,Port Macquarie,-31.4333,152.9167,23.33,51,19,0.45,AU,1619660697
261,1502725,Yugorsk,61.3133,63.3319,4.1,84,100,3.1,RU,1619660698
262,3416888,Grindavik,63.8424,-22.4338,4.0,93,75,3.09,IS,1619660698
263,707292,Izyum,49.2088,37.2485,4.39,63,0,2.15,UA,1619660698
264,2212775,Sabha,27.0377,14.4283,27.51,10,68,1.84,LY,1619660529
265,2127202,Anadyr,64.75,177.4833,-3.0,80,0,5.0,RU,1619660699
266,3391889,Pitimbu,-7.4706,-34.8086,25.0,88,0,1.54,BR,1619660700
267,1045114,Inhambane,-23.865,35.3833,22.71,78,0,2.19,MZ,1619660425
268,6063191,Mackenzie,55.2999,-123.1698,9.0,66,90,7.2,CA,1619660700
269,2015545,Tarbagatay,51.4803,107.3602,2.0,44,100,2.0,RU,1619660700
270,58933,Garoowe,8.4054,48.4845,24.7,77,33,3.81,SO,1619660701
271,1645528,Denpasar,-8.65,115.2167,29.0,79,20,3.09,ID,1619660701
272,5821593,Cody,44.5263,-109.0565,17.22,23,1,3.6,US,1619660702
273,1024312,Mocuba,-16.8392,36.9856,20.59,98,59,0.61,MZ,1619660702
274,3495137,Pedernales,18.0384,-71.744,25.21,70,8,0.56,DO,1619660703
275,1632694,Pangkalanbuun,-2.6833,111.6167,29.17,69,89,1.37,ID,1619660695
276,2293428,Adiaké,5.2863,-3.304,28.0,94,40,1.54,CI,1619660705
277,2729907,Longyearbyen,78.2186,15.6401,-6.0,63,40,7.2,SJ,1619660471
278,3663475,Maraã,-1.8333,-65.3667,22.63,98,100,1.06,BR,1619660705
279,1895695,Kushima,31.4583,131.2333,17.0,100,90,1.54,JP,1619660706
280,7341918,Moba,33.2288,105.0179,13.43,50,0,1.66,CN,1619660706
281,2121385,Severo-Kuril'sk,50.6789,156.125,3.04,85,99,1.64,RU,1619660309
282,110690,Abhā,18.2164,42.5053,15.0,82,20,1.74,SA,1619660707
283,4149635,Callaway,30.153,-85.5699,22.78,88,1,4.12,US,1619660707
284,1608033,Pak Phanang,8.3511,100.202,28.0,83,20,1.03,TH,1619660707
285,2147756,Swan Hill,-35.3378,143.5544,21.52,34,0,1.25,AU,1619660708
286,1502073,Krasnosel'kup,65.7,82.4667,-0.17,98,100,3.98,RU,1619660708
287,779622,Havøysund,70.9963,24.6622,-2.0,69,75,2.06,NO,1619660452
288,1502822,Kolyvan',55.3053,82.7391,5.56,100,0,3.0,RU,1619660709
289,933633,Khudumelapye,-23.8833,24.75,18.01,27,39,3.82,BW,1619660709
290,330534,Mīzan Teferī,6.9833,35.5833,17.18,93,100,1.24,ET,1619660709
291,7521301,Nalvo,16.8096,120.5108,30.93,47,59,2.78,PH,1619660710
292,1071296,Antalaha,-14.9003,50.2788,22.84,91,12,3.2,MG,1619660710
293,1497142,Novobiryusinskiy,56.9578,97.7076,2.51,81,100,4.4,RU,1619660711
294,495562,Shatki,55.1887,44.1249,0.58,93,18,3.59,RU,1619660711
295,2655288,Boddam,57.4667,-1.7833,5.0,87,97,3.09,GB,1619660711
296,4470244,Havelock,34.8791,-76.9013,21.11,78,1,6.69,US,1619660712
297,6096551,Pangnirtung,66.1451,-65.7125,-0.13,81,100,1.77,CA,1619660663
298,1731661,Alanib,8.0278,124.9861,27.78,78,89,2.68,PH,1619660712
299,2541479,Nador,35.174,-2.9287,17.0,72,0,6.17,MA,1619660713
300,1735106,George Town,5.4112,100.3354,28.89,83,20,0.51,MY,1619660403
301,218229,Bongandanga,1.5,21.05,21.35,94,100,1.12,CD,1619660713
302,1276574,Bela,25.9333,81.9833,34.01,9,8,1.24,IN,1619660714
303,1240372,Kilinochchi,9.3961,80.3982,27.81,78,5,3.54,LK,1619660714
304,2643044,Margate,51.3813,1.3862,7.22,79,99,3.13,GB,1619660714
305,6111862,Port Hardy,50.6996,-127.4199,10.0,93,90,6.17,CA,1619660535
306,3373652,Oistins,13.0667,-59.5333,26.0,65,20,9.26,BB,1619660700
307,5392593,San Ramon,37.7799,-121.978,26.0,22,1,6.69,US,1619660715
308,1650232,Banjar,-8.19,114.9675,29.0,79,20,3.09,ID,1619660686
309,1814093,Dali,25.7,100.1833,16.26,66,66,1.77,CN,1619660716
310,1246294,Galle,6.0367,80.217,28.53,73,60,2.87,LK,1619660716
311,3870243,Taltal,-25.4,-70.4833,17.48,82,0,1.68,CL,1619660420
312,2132606,Samarai,-10.6167,150.6667,26.77,72,100,4.49,PG,1619660505
313,1507116,Dudinka,69.4058,86.1778,0.23,100,100,2.96,RU,1619660559
314,2122104,Petropavlovsk-Kamchatskiy,53.0452,158.6483,6.0,70,40,6.0,RU,1619660651
315,114049,Sonqor,34.7837,47.6004,6.0,65,0,1.2,IR,1619660717
316,1505466,Isetskoye,56.4858,65.3226,6.15,67,92,4.59,RU,1619660718
317,498666,Chebenki,51.9337,55.7077,3.0,100,0,2.0,RU,1619660718
318,2527087,Tiznit Province,29.5833,-9.5,12.84,84,70,0.81,MA,1619660719
319,3355672,Lüderitz,-26.6481,15.1594,15.49,72,12,9.52,NA,1619660460
320,2112309,Katsuura,35.1333,140.3,18.33,88,75,4.12,JP,1619660372
321,5847411,Kahului,20.8947,-156.47,26.0,73,40,5.66,US,1619660467
322,5954718,Flin Flon,54.7682,-101.865,-1.69,66,94,1.52,CA,1619660557
323,463355,Zheleznodorozhnyy,55.7503,38.0042,5.0,75,0,2.0,RU,1619660720
324,5546220,Saint George,37.1041,-113.5841,25.0,15,1,3.09,US,1619660720
325,1644932,Ende,-8.8432,121.6623,29.07,56,91,1.47,ID,1619660721
326,1498161,Muzhi,65.3667,64.6667,-0.31,98,100,4.86,RU,1619660721
327,965241,Piet Retief,-27.0071,30.8132,10.1,82,0,2.18,ZA,1619660721
328,1258492,Nalbari,26.4456,91.4354,23.0,68,40,2.84,IN,1619660722
329,3608828,Iralaya,15.0,-83.2333,26.27,73,7,4.77,HN,1619660722
330,3466750,Cassilândia,-19.1133,-51.7342,18.5,41,37,1.62,BR,1619660723
331,2339937,Gusau,12.1628,6.6614,28.91,22,92,3.56,NG,1619660723
332,6088469,Nipawin,53.3668,-104.0009,3.0,60,90,3.09,CA,1619660704
333,921786,Mitsamiouli,-11.3847,43.2844,27.07,77,9,3.7,KM,1619660724
334,2137773,Vao,-22.6667,167.4833,23.43,57,31,7.52,NC,1619660537
335,214389,Kaniama,-7.5667,24.1833,19.4,94,45,1.75,CD,1619660724
336,3356832,Henties Bay,-22.116,14.2845,15.56,92,47,1.34,NA,1619660724
337,1489907,Tayga,56.06,85.6197,5.0,100,0,3.0,RU,1619660725
338,4922388,Kokomo,40.4864,-86.1336,18.33,100,90,2.46,US,1619660725
339,4004293,Ixtapa,20.7,-105.2,25.0,78,90,4.12,MX,1619660488
340,286621,Salalah,17.0151,54.0924,29.0,79,20,2.06,OM,1619660726
341,2523082,Syracuse,37.0881,15.2792,16.67,94,0,1.03,IT,1619660443
342,5367788,Lompoc,34.6391,-120.4579,17.0,63,0,5.66,US,1619660502
343,1651591,Amahai,-3.3333,128.9167,30.05,64,85,1.73,ID,1619660726
344,2065594,Mount Isa,-20.7333,139.5,28.0,26,0,4.63,AU,1619660513
345,1269507,Jaisalmer,26.9147,70.9181,28.88,31,32,3.38,IN,1619660501
346,4031637,Lavrentiya,65.5833,-171.0,-2.3,74,8,2.97,RU,1619660727
347,189741,Lamu,-2.2717,40.902,26.02,88,18,2.97,KE,1619660727
348,98182,Baghdad,33.3406,44.4009,20.0,45,0,2.06,IQ,1619660277
349,1516589,Zhezkazgan,47.8043,67.7144,17.76,55,100,4.72,KZ,1619660728
350,3662489,Santa Isabel Rio Negro,-0.4139,-65.0192,22.9,99,100,1.1,BR,1619660728
351,3421719,Narsaq,60.9167,-46.05,3.0,81,90,1.03,GL,1619660729
352,3441702,Melo,-32.3667,-54.1833,10.9,81,0,0.32,UY,1619660729
353,3572189,High Rock,26.6208,-78.2833,24.0,83,40,4.63,BS,1619660730
354,5404476,Ukiah,39.1502,-123.2078,27.0,18,1,3.6,US,1619660730
355,516197,Odoyev,53.9393,36.6864,0.5,94,69,2.24,RU,1619660730
356,549645,Kholuy,56.575,41.8692,1.65,93,69,3.15,RU,1619660731
357,577240,Dvinskoy Bereznik,62.8551,42.7072,-2.92,81,40,1.6,RU,1619660731
358,2460755,Bafoulabé,13.8065,-10.8321,36.14,19,95,2.5,ML,1619660732
359,5826027,Gillette,44.2911,-105.5022,16.0,27,1,6.17,US,1619660732
360,2158767,Mareeba,-17.0,145.4333,23.89,88,66,0.89,AU,1619660483
361,2068110,Kununurra,-15.7667,128.7333,32.0,51,0,3.09,AU,1619660733
362,6453316,Tromsø,69.6496,18.957,0.0,69,75,4.12,NO,1619660733
363,2328925,Igede,10.0544,5.9416,26.93,61,90,1.28,NG,1619660733
364,3128760,Barcelona,41.3888,2.159,15.56,88,75,2.57,ES,1619660734
365,2174444,Bowen,-20.0167,148.2333,25.0,69,90,6.69,AU,1619660507
366,6167125,Tobermory,45.2501,-81.6665,5.0,93,94,4.63,CA,1619660734
367,3382160,Cayenne,4.9333,-52.3333,26.11,94,75,2.57,GF,1619660525
368,485660,Tsimmerbude,54.675,20.1347,5.0,75,0,3.0,RU,1619660735
369,3377301,Mabaruma,8.2,-59.7833,24.09,88,100,1.9,GY,1619660735
370,3662342,São Gabriel da Cachoeira,-0.1303,-67.0892,22.33,99,100,0.9,BR,1619660736
371,1803331,Linxia Chengguanzhen,35.6003,103.2064,14.19,24,0,0.73,CN,1619660736
372,4513583,Hamilton,39.1834,-84.5333,19.44,100,90,2.57,US,1619660722
373,2641434,Northam,51.0333,-4.2167,6.67,80,21,2.24,GB,1619660736
374,962367,Richards Bay,-28.783,32.0377,19.13,94,6,2.85,ZA,1619660737
375,1039536,Maxixe,-23.8597,35.3472,21.92,81,0,1.79,MZ,1619660737
376,2030065,Mandalgovi,45.7625,106.2708,3.24,41,76,3.67,MN,1619660737
377,367644,Sennar,13.5691,33.5672,32.17,22,86,5.38,SD,1619660738
378,2156927,Moree,-29.4667,149.85,22.0,49,93,3.6,AU,1619660738
379,1525798,Balkhash,46.844,74.9804,16.0,36,0,5.0,KZ,1619660739
380,2181625,Te Anau,-45.4167,167.7167,11.63,92,100,2.27,NZ,1619660464
381,2068079,Kwinana,-32.25,115.7667,21.11,78,100,4.63,AU,1619660739
382,5849297,Kīhei,20.785,-156.4656,26.0,73,40,5.66,US,1619660555
383,5955826,Fort Frances,48.5999,-93.4003,16.0,39,20,2.57,CA,1619660615
384,1798425,Puyang,29.4603,119.8861,21.54,71,33,3.22,CN,1619660740
385,4616470,Crossville,35.949,-85.0269,19.0,88,1,2.48,US,1619660740
386,3374235,Sal Rei,16.1833,-22.9167,21.0,73,40,5.14,CV,1619660741
387,779683,Hammerfest,70.6634,23.6821,-2.0,69,75,2.06,NO,1619660741
388,1266452,Methala,10.2166,76.2166,27.0,89,40,1.54,IN,1619660742
389,2173125,Burnie,-41.0667,145.9167,15.56,80,57,1.79,AU,1619660742
390,5101305,Monmouth,40.3001,-74.1663,27.0,41,40,3.6,US,1619660742
391,3899539,Antofagasta,-23.65,-70.4,16.0,82,0,1.54,CL,1619660539
392,1506268,Gornopravdinsk,60.05,69.9,4.64,79,95,3.8,RU,1619660743
393,5928065,Cornwall,45.0181,-74.7281,9.0,87,90,4.12,CA,1619660743
394,1806687,Yong’an,39.6957,113.6871,10.0,25,55,9.95,CN,1619660744
395,4560349,Philadelphia,39.9523,-75.1638,26.0,47,75,5.66,US,1619660707
396,2525362,Carbonia,39.1672,8.5222,16.67,88,75,2.57,IT,1619660744
397,933726,Hukuntsi,-24.0,21.75,19.25,42,8,5.15,BW,1619660744
398,6533368,Moranbah,-22.0016,148.0466,22.44,63,77,7.72,AU,1619660745
399,3835869,Santiago del Estero,-27.7951,-64.2615,17.56,67,91,3.57,AR,1619660745
400,3126369,Carballo,43.213,-8.691,8.33,100,20,1.54,ES,1619660746
401,2027296,Aykhal,66.0,111.5,-0.95,82,6,5.58,RU,1619660746
402,2177069,Ballina,-28.8667,153.5667,21.0,73,100,3.6,AU,1619660746
403,515805,Oktyabr'skoye,43.0645,44.7417,8.0,100,35,2.0,RU,1619660747
404,3372964,Lagoa,39.05,-27.9833,14.51,67,73,4.15,PT,1619660747
405,174448,Abu Kamal,34.4506,40.9171,22.93,29,0,4.34,SY,1619660748
406,5887916,Athabasca,54.7169,-113.2854,4.0,75,100,2.06,CA,1619660633
407,3461425,Ilhabela,-23.7781,-45.3581,20.47,85,94,1.71,BR,1619660748
408,1497210,Novoagansk,61.9449,76.6625,5.74,73,95,3.24,RU,1619660749
409,364933,Umm Kaddadah,13.6017,26.6876,26.54,14,78,6.08,SD,1619660749
410,2126710,Beringovskiy,63.05,179.3167,-0.93,71,0,1.12,RU,1619660496
411,3163146,Andenes,69.3143,16.1194,1.0,64,100,3.94,NO,1619660750
412,2171099,Codrington,-38.2667,141.9667,20.16,44,6,2.68,AU,1619660487
413,3893656,Copiapó,-27.3667,-70.3333,14.0,77,0,2.06,CL,1619660367
414,1821274,Macao,22.2006,113.5461,22.0,78,40,6.69,MO,1619660750
415,3450083,Santa Maria,-29.6842,-53.8069,10.0,100,0,1.03,BR,1619660686
416,5030005,Hibbing,47.4272,-92.9377,16.0,41,1,1.54,US,1619660751
417,2179103,Whitianga,-36.8333,175.7,20.56,69,25,2.68,NZ,1619660751
418,1624725,Tarakan,3.3,117.6333,29.0,84,40,2.06,ID,1619660752
419,5417598,Colorado Springs,38.8339,-104.8214,12.0,49,1,3.6,US,1619660548
420,376332,Doka,13.5167,35.7667,29.38,36,17,4.95,SD,1619660752
421,1633034,Palu,-0.8917,119.8707,32.06,57,21,0.54,ID,1619660752
422,2144528,Warrnambool,-38.3833,142.4833,18.41,55,9,2.24,AU,1619660753
423,1714733,Dingle,10.9995,122.6711,30.3,59,50,3.09,PH,1619660753
424,1337607,Kudahuvadhoo,2.6708,72.8944,28.38,65,100,3.82,MV,1619660543
425,3354077,Opuwo,-18.0607,13.84,18.09,60,17,1.79,NA,1619660754
426,1519030,Chu,43.5983,73.7614,20.22,45,0,2.65,KZ,1619660754
427,2191562,Dunedin,-45.8742,170.5036,18.33,52,81,0.45,NZ,1619660533
428,2399831,Lékoni,-1.5843,14.2591,22.17,91,100,0.77,GA,1619660755
429,6173361,Vanderhoof,54.0166,-124.0198,5.96,96,100,2.73,CA,1619660755
430,4634662,Kingsport,36.5484,-82.5618,24.0,53,90,3.6,US,1619660756
431,1521315,Līsakovsk,52.5369,62.4936,6.75,78,36,3.53,KZ,1619660756
432,2293549,Abengourou,6.7297,-3.4964,23.46,97,100,0.95,CI,1619660757
433,5859699,College,64.8569,-147.8028,12.0,22,40,0.96,US,1619660757
434,535839,Leshukonskoye,64.8989,45.7622,-2.71,67,18,1.17,RU,1619660757
435,240604,Bambari,5.768,20.6757,21.39,91,100,0.45,CF,1619660758
436,1516048,Khovd,48.0056,91.6419,15.56,31,15,1.05,MN,1619660522
437,1059051,Miandrivazo,-19.5167,45.4667,23.53,80,0,1.92,MG,1619660758
438,2068655,Katherine,-14.4667,132.2667,31.0,55,75,4.63,AU,1619660460
439,2012593,Zeya,53.75,127.2667,5.85,83,100,1.23,RU,1619660759
440,964712,Plettenberg Bay,-34.0527,23.3716,15.39,87,100,4.26,ZA,1619660760
441,2288105,Grand-Lahou,5.1367,-5.0242,26.71,85,93,3.56,CI,1619660474
442,1732826,Mersing,2.4312,103.8405,27.0,89,20,1.03,MY,1619660760
443,5887798,Assiniboia,49.6334,-105.9845,13.0,28,72,2.57,CA,1619660760
444,1631637,Pemangkat,1.1667,108.9667,27.92,73,81,1.73,ID,1619660737
445,1628884,Sampit,-2.5333,112.95,28.02,76,92,1.17,ID,1619660761
446,5563839,Fortuna,40.5982,-124.1573,16.67,82,1,4.63,US,1619660362
447,6255012,Flinders,-34.5833,150.8552,22.78,66,28,0.89,AU,1619660656
448,2109701,Auki,-8.7676,160.7034,27.54,76,41,0.68,SB,1619660762
449,2289549,Duekoué,6.7472,-7.3496,22.94,99,100,0.95,CI,1619660762
450,215605,Kabare,-2.4683,28.8242,15.81,97,100,0.69,CD,1619660763
451,1805733,Jinchang,38.4953,102.1739,18.13,15,2,8.77,CN,1619660763
452,3520994,Puerto Escondido,15.85,-97.0667,28.0,65,1,1.54,MX,1619660763
453,2537881,Safi,32.2994,-9.2372,16.37,79,100,2.84,MA,1619660764
454,2438774,Tibiri,13.5627,7.0485,28.43,8,53,4.4,NE,1619660764
455,2171069,Colac,-38.3333,143.5833,16.11,82,10,1.75,AU,1619660764
456,3697838,Contamana,-7.3333,-75.0167,21.24,88,38,0.53,PE,1619660765
457,4569073,Aiken,33.5835,-81.5998,21.67,68,1,3.09,US,1619660765
458,3452599,Posse,-14.0931,-46.3694,21.73,76,60,1.62,BR,1619660766
459,4946620,Palmer,42.1584,-72.3287,15.0,94,90,3.09,US,1619660518
460,1497337,Noril'sk,69.3535,88.2027,0.83,97,100,2.95,RU,1619660766
461,1157662,Bang Saphan,11.2126,99.5117,29.44,94,20,1.03,TH,1619660767
462,927246,Mangochi,-14.4782,35.2645,20.18,93,14,1.05,MW,1619660767
463,1805935,Jiazi,22.8779,116.067,24.85,67,98,2.67,CN,1619660743
464,3893629,Coquimbo,-29.9533,-71.3436,13.0,94,0,2.06,CL,1619660679
465,443187,Karaman Province,37.0833,33.25,16.04,44,57,1.75,TR,1619660680
466,3665202,Aripuanã,-9.1667,-60.6333,22.69,97,83,0.72,BR,1619660768
467,3466980,Caravelas,-17.7125,-39.2481,23.43,84,61,2.31,BR,1619660540
468,6690296,Saint-Joseph,-21.3667,55.6167,25.0,78,0,6.17,RE,1619660768
469,1651531,Ambon City,-3.6954,128.1814,28.81,66,88,1.65,ID,1619660769
470,3420846,Qaqortoq,60.7167,-46.0333,3.0,81,90,1.03,GL,1619660556
471,2633274,Akureyri,65.6835,-18.0878,-3.0,86,0,2.06,IS,1619660769
472,5671996,Polson,47.6936,-114.1632,15.0,44,92,2.24,US,1619660770
473,548602,Kingisepp,59.3733,28.6134,-1.08,94,96,1.76,RU,1619660770
474,5380437,Pacific Grove,36.6177,-121.9166,19.0,48,1,3.09,US,1619660500
475,3139597,Sistranda,63.7256,8.834,-1.0,93,20,1.54,NO,1619660771
476,934479,Grand Gaube,-20.0064,57.6608,23.89,92,89,1.34,MU,1619660771
477,5886182,Antigonish,45.6169,-61.9986,6.67,87,100,0.45,CA,1619660545
478,1067565,Beloha,-25.1667,45.05,20.5,86,0,2.05,MG,1619660772
479,2449893,Tessalit,20.1986,1.0114,31.61,9,99,3.09,ML,1619660772
480,1529660,Aksu,41.1231,80.2644,21.07,14,0,2.07,CN,1619660772
481,1250161,Batticaloa,7.7102,81.6924,27.62,76,90,2.84,LK,1619660500
482,2400547,Gamba,-2.65,10.0,24.98,89,100,1.87,GA,1619660773
483,556268,Ostrovnoy,68.0531,39.5131,-9.33,86,68,3.83,RU,1619660314
484,1504442,Karatuzskoye,53.6072,92.8667,8.02,68,100,5.06,RU,1619660773
485,554318,Kalevala,65.2,31.1667,-3.94,88,98,1.05,RU,1619660774
486,5905393,Bonavista,48.6499,-53.1147,4.44,93,94,3.09,CA,1619660551
487,2120400,Tungor,53.3808,142.9564,1.12,75,29,5.31,RU,1619660663
488,3380290,Sinnamary,5.3833,-52.95,24.86,90,100,4.07,GF,1619660775
489,3924679,Vilhena,-12.7406,-60.1458,20.26,86,83,1.78,BR,1619660472
490,6171633,Ucluelet,48.9329,-125.5528,11.11,93,90,1.03,CA,1619660288
491,3471210,Bady Bassitt,-20.9181,-49.4453,23.0,35,0,2.54,BR,1619660775
492,3386177,Trairi,-3.2778,-39.2689,25.23,85,100,2.46,BR,1619660526
493,3395981,Maceió,-9.6658,-35.7353,24.0,94,75,1.03,BR,1619660672
494,1005768,Ellisras,-23.6649,27.7443,15.51,61,47,2.16,ZA,1619660776
495,3671450,Inírida,3.8653,-67.9239,22.53,97,81,0.49,CO,1619660777
496,5134295,Rome,43.2128,-75.4557,16.0,88,90,1.64,US,1619660777
497,1625908,Sungai Raya,0.7,108.9,29.17,63,98,1.54,ID,1619660777
498,912628,Kasempa,-13.4584,25.8338,17.19,83,35,2.52,ZM,1619660778
499,7601762,Bairiki Village,1.3292,172.9752,30.0,74,75,5.14,KI,1619660778
500,2214432,Nālūt,30.3333,10.85,28.35,18,86,3.91,LY,1619660778
501,3833062,Venado Tuerto,-33.7456,-61.9688,14.44,99,6,2.24,AR,1619660771
502,2121373,Seymchan,62.8833,152.4333,0.61,92,63,1.7,RU,1619660779
503,2358382,Léo,11.1,-2.1,28.63,53,79,3.39,BF,1619660779
504,3080071,Złotów,53.3635,17.0408,6.11,67,100,3.52,PL,1619660780
505,935616,Le Port,-20.9373,55.2919,25.0,78,0,6.17,RE,1619660780
506,4218882,Rincon,32.296,-81.2354,22.0,78,20,4.63,US,1619660781
507,2028164,Deputatsky,69.3,139.9,-5.49,77,20,1.72,RU,1619660781
508,1591474,Bac Lieu,9.285,105.7244,30.21,65,100,4.52,VN,1619660781
509,3664659,Carauari,-4.8828,-66.8958,22.46,99,100,0.49,BR,1619660782
510,1263917,Māndal,25.45,74.5667,31.08,21,43,6.72,IN,1619660782
511,2447513,Arlit,18.7369,7.3853,30.64,11,2,2.92,NE,1619660783
512,365763,Tonj,7.2737,28.6822,25.31,74,100,1.32,SS,1619660783
513,3347019,Mossamedes,-15.1961,12.1522,23.31,71,66,4.0,AO,1619660783
514,1687186,Sarangani,5.4033,125.4636,28.57,73,100,4.85,PH,1619660784
515,2396853,Omboué,-1.5746,9.2618,25.04,90,100,1.32,GA,1619660526
516,3458498,Linhares,-19.3911,-40.0722,21.0,93,28,2.0,BR,1619660784
517,1131461,Oruzgan,32.8333,66.0,18.97,31,3,0.56,AF,1619660785
518,217570,Buta,2.7858,24.73,20.59,96,100,0.57,CD,1619660785
519,2629833,Husavik,66.0449,-17.3389,-3.0,86,0,2.06,IS,1619660785
520,3988086,Saltillo,25.4167,-101.0,29.0,26,40,5.14,MX,1619660582
521,3422683,Kangaatsiaq,68.3065,-53.4641,0.0,83,93,5.84,GL,1619660671
522,286245,Sur,22.5667,59.5289,29.8,40,100,1.01,OM,1619660498
523,2426240,Pala,9.3642,14.9046,27.17,53,100,2.34,TD,1619660786
524,1651103,Atambua,-9.1061,124.8925,27.59,56,18,0.84,ID,1619660787
525,3697441,El Alto,-4.2714,-81.2147,20.34,76,35,5.69,PE,1619660787
526,1106643,Quatre Cocos,-20.2078,57.7625,25.0,88,75,3.6,MU,1619660721
527,1185095,Teknāf,20.8624,92.3058,28.68,70,2,0.25,BD,1619660788
528,5962442,Goderich,43.7501,-81.7165,5.0,93,100,3.6,CA,1619660788
529,3194183,Ogulin,45.2661,15.2286,13.33,94,90,2.57,HR,1619660789
530,2260401,Djambala,-2.5447,14.7533,20.63,93,100,0.8,CG,1619660789
531,2192362,Christchurch,-43.5333,172.6333,18.0,39,13,1.54,NZ,1619660220
532,6166142,Thunder Bay,48.4001,-89.3168,10.0,53,40,1.54,CA,1619660790
533,3868633,Vallenar,-28.5708,-70.7581,16.58,68,0,1.19,CL,1619660790
534,2090021,Namatanai,-3.6667,152.4333,29.86,65,83,4.22,PG,1619660511
535,1856703,Miyazu,35.5333,135.1833,13.0,100,75,1.03,JP,1619660790
536,582447,Almaznyy,48.0448,40.045,7.0,81,0,5.0,RU,1619660791
537,3469932,Boa Esperança,-21.09,-45.5658,16.14,72,60,1.3,BR,1619660791
538,2656847,Atherton,53.5237,-2.4935,5.0,73,46,1.64,GB,1619660792
539,5359446,Indio,33.7206,-116.2156,34.0,4,1,6.69,US,1619660792
540,5354943,Half Moon Bay,37.4636,-122.4286,25.0,77,1,5.14,US,1619660444
541,1715015,Dicabisagan,17.0818,122.4157,28.53,60,74,1.76,PH,1619660484
542,2122389,Ossora,59.2353,163.0719,0.65,98,100,2.15,RU,1619660793
543,6853140,Lesnoy,57.6198,63.0784,4.41,65,12,4.9,RU,1619660793
544,1018725,Bloemfontein,-29.1211,26.214,13.0,76,94,2.57,ZA,1619660608
545,2290836,Boundiali,9.5217,-6.4869,23.6,85,99,2.73,CI,1619660794
546,3652758,Puerto Baquerizo Moreno,-0.9,-89.6,24.4,87,71,3.31,EC,1619660794
547,1634614,Nabire,-3.3667,135.4833,30.62,61,33,1.8,ID,1619660622
548,2122614,Okha,53.5739,142.9478,0.95,75,13,5.72,RU,1619660502
549,3516171,Barra de Tecoanapa,16.5167,-98.75,27.12,72,18,2.3,MX,1619660796
550,477682,Utsmiyurt,43.5348,46.4695,9.0,100,96,2.0,RU,1619660797
551,3671325,Puerto Santander,8.3636,-72.4063,25.0,88,40,1.03,CO,1619660797
552,229112,Moroto,2.5345,34.6666,19.2,77,71,0.5,UG,1619660797
553,3470709,Barra do Garças,-15.89,-52.2567,22.54,65,100,1.29,BR,1619660798
554,1862505,Hirara,24.8,125.2833,24.0,83,75,4.63,JP,1619660723
555,1791779,Wanning,18.8003,110.3967,26.73,80,80,2.95,CN,1619660774
556,107304,Buraidah,26.326,43.975,21.0,60,0,2.57,SA,1619660798
557,1214724,Langsa,4.4683,97.9683,28.22,77,100,0.81,ID,1619660799
558,2630299,Hofn,64.2539,-15.2082,2.14,64,98,3.81,IS,1619660799
559,2646172,Innerleithen,55.6193,-3.063,2.78,78,100,1.73,GB,1619660800
560,5105640,Union,40.6334,-74.2663,28.0,44,75,3.6,US,1619660526
561,2377450,Nouakchott,18.0858,-15.9785,20.0,88,6,6.17,MR,1619660800
562,3421982,Maniitsoq,65.4167,-52.9,1.87,80,100,0.61,GL,1619660713
563,2182010,Tairua,-37.0167,175.85,16.67,67,11,0.89,NZ,1619660801
564,2013399,Vikhorevka,56.1201,101.1636,3.0,30,100,5.0,RU,1619660801
565,218253,Bondo,3.8146,23.6866,20.95,99,100,1.19,CD,1619660802
566,3924610,Achacachi,-16.05,-68.6833,4.39,79,76,2.37,BO,1619660802
567,290030,Doha,25.2867,51.5333,31.0,35,75,3.09,QA,1619660191
568,690648,Usatove,46.533,30.6596,9.0,87,0,3.0,UA,1619660803
569,2386042,Kabo,7.6994,18.629,23.4,79,100,1.97,CF,1619660803
570,1497543,Nizhnevartovsk,60.9344,76.5531,4.0,75,0,3.0,RU,1619660635
571,916095,Kabwe,-14.4469,28.4464,17.0,84,12,2.42,ZM,1619660804
572,2063036,Port Lincoln,-34.7333,135.8667,21.47,38,11,1.05,AU,1619660458
573,2138555,Poum,-20.2333,164.0167,24.07,51,0,1.08,NC,1619660804
