,ID,City,Lat,Lng,Max Temp,Humidity,Cloudiness,Wind Speed,Country,Date
0,2110227,Butaritari,3.0707,172.7902,28.04,76,93,3.64,KI,1619581972
1,4030556,Rikitea,-23.1203,-134.9692,24.85,74,100,5.21,PF,1619581761
2,625721,Lyuban',52.7985,28.0048,2.97,83,100,2.26,BY,1619581972
3,5983720,Iqaluit,63.7506,-68.5145,-9.0,92,20,1.58,CA,1619581973
4,4020109,Atuona,-9.8,-139.0333,26.65,74,24,5.56,PF,1619582534
5,5847411,Kahului,20.8947,-156.47,27.0,61,40,5.14,US,1619581935
6,5122534,Jamestown,42.097,-79.2353,19.0,48,20,9.77,US,1619581974
7,479028,Unecha,52.8459,32.6739,2.38,84,99,3.78,RU,1619581974
8,2132606,Samarai,-10.6167,150.6667,26.45,79,99,3.54,PG,1619582535
9,1518768,Stepnyak,52.8339,70.7803,12.49,72,57,8.9,KZ,1619582535
10,3839307,Rawson,-43.3002,-65.1023,18.38,43,86,4.97,AR,1619581975
11,2075265,Busselton,-33.65,115.3333,23.33,67,3,0.89,AU,1619582536
12,2163355,Hobart,-42.8794,147.3294,19.44,51,75,4.63,AU,1619582536
13,546105,Nikolskoye,59.7035,30.7861,1.67,86,90,1.54,RU,1619582537
14,5110365,Broome,42.2506,-75.833,19.0,37,90,3.6,US,1619581977
15,2206939,Bluff,-46.6,168.3333,13.33,78,69,6.26,NZ,1619581962
16,3471451,Arraial do Cabo,-22.9661,-42.0278,22.7,82,98,2.83,BR,1619581977
17,2074865,Carnarvon,-24.8667,113.6333,33.0,19,0,3.6,AU,1619581977
18,3466704,Castro,-24.7911,-50.0119,11.51,97,4,2.19,BR,1619581978
19,4031637,Lavrentiya,65.5833,-171.0,0.71,92,100,1.03,RU,1619581978
20,6201424,Mataura,-46.1927,168.8643,13.33,78,100,6.26,NZ,1619581842
21,3833367,Ushuaia,-54.8,-68.3,5.0,87,40,8.23,AR,1619581979
22,3443061,Chui,-33.6971,-53.4616,10.9,85,0,2.83,UY,1619581979
23,5855927,Hilo,19.7297,-155.09,27.0,50,90,1.54,US,1619581838
24,2070998,Geraldton,-28.7667,114.6,30.0,21,2,2.57,AU,1619581980
25,935215,Saint-Philippe,-21.3585,55.7679,25.0,78,0,3.09,RE,1619581980
26,2174444,Bowen,-20.0167,148.2333,25.0,65,75,7.72,AU,1619581981
27,2212775,Sabha,27.0377,14.4283,24.56,14,7,4.01,LY,1619581981
28,232571,Kalangala,-0.3089,32.225,23.43,68,39,5.7,UG,1619581981
29,553416,Kamenskiy,50.8855,45.488,5.94,69,94,2.58,RU,1619581982
30,4032243,Vaini,-21.2,-175.2,23.0,88,90,5.66,TO,1619581982
31,2342490,Funtua,11.5233,7.3081,25.34,51,79,3.82,NG,1619581983
32,1006984,East London,-33.0153,27.9116,16.0,72,0,3.6,ZA,1619581983
33,4726521,San Patricio,28.017,-97.5169,24.44,94,90,6.69,US,1619581983
34,1712961,Gigmoto,13.7796,124.39,29.1,59,74,2.95,PH,1619581984
35,2630299,Hofn,64.2539,-15.2082,4.35,62,4,7.31,IS,1619581984
36,1649150,Bengkulu,-3.8004,102.2655,29.54,66,59,2.1,ID,1619581984
37,2180815,Tuatapere,-46.1333,167.6833,13.33,78,90,6.26,NZ,1619581941
38,3985710,Cabo San Lucas,22.8909,-109.9124,22.22,72,23,6.74,MX,1619581983
39,5880054,Barrow,71.2906,-156.7887,-7.0,86,90,1.54,US,1619581802
40,2067089,Maningrida,-12.0667,134.2667,29.43,69,60,5.21,AU,1619581985
41,5282297,Bethel,41.3712,-73.414,12.0,50,1,1.26,US,1619581986
42,1517060,Zaysan,47.4667,84.8667,17.68,32,45,2.39,KZ,1619581781
43,1633419,Padang,-0.9492,100.3543,29.0,74,20,2.57,ID,1619581987
44,1064275,Ihosy,-22.4,46.1167,18.26,92,90,2.18,MG,1619581987
45,4160812,Key West,24.5557,-81.7826,26.0,61,90,6.17,US,1619581948
46,1516048,Khovd,48.0056,91.6419,14.45,21,99,1.71,MN,1619581750
47,1490256,Talnakh,69.4865,88.3972,-0.85,79,100,5.31,RU,1619581702
48,2155415,New Norfolk,-42.7826,147.0587,19.44,71,98,3.13,AU,1619581988
49,2156643,Mount Gambier,-37.8333,140.7667,16.0,63,75,2.06,AU,1619581809
50,6170031,Tuktoyaktuk,69.4541,-133.0374,-9.0,73,20,5.14,CA,1619581878
51,792945,Banatski Karlovac,45.0472,21.0161,12.22,71,90,11.32,RS,1619581988
52,3874787,Punta Arenas,-53.15,-70.9167,4.0,93,40,3.09,CL,1619581913
53,2123979,Kuril'sk,45.2333,147.8833,3.42,52,70,1.25,RU,1619581989
54,616944,Aragats,40.4889,44.3528,14.0,67,88,1.03,AM,1619581989
55,2194098,Ahipara,-35.1667,173.1667,16.84,57,14,4.86,NZ,1619581990
56,6089245,Norman Wells,65.282,-126.8329,-2.0,40,75,4.12,CA,1619581918
57,5364271,Laguna,38.421,-121.4238,22.0,21,1,2.57,US,1619581953
58,2514651,Los Llanos de Aridane,28.6585,-17.9182,17.0,67,0,3.09,ES,1619581875
59,1259385,Port Blair,11.6667,92.75,30.0,84,40,2.06,IN,1619581991
60,777019,Vardø,70.3705,31.1107,-3.0,63,75,4.12,NO,1619581991
61,2015352,Terney,45.0503,136.6092,5.38,97,100,2.01,RU,1619581991
62,5838199,Sheridan,44.8333,-106.9173,7.22,70,1,3.6,US,1619581992
63,5870133,Nome,64.5011,-165.4064,2.22,80,1,3.09,US,1619581992
64,2447513,Arlit,18.7369,7.3853,29.68,10,0,4.02,NE,1619581993
65,986717,Kruisfontein,-34.0033,24.7314,11.67,94,100,0.89,ZA,1619581993
66,5106841,Albany,42.6001,-73.9662,12.78,41,86,0.67,US,1619581790
67,1805733,Jinchang,38.4953,102.1739,14.87,14,4,11.65,CN,1619581994
68,3369157,Cape Town,-33.9258,18.4232,14.44,93,0,1.03,ZA,1619581994
69,2632287,Dalvik,65.9702,-18.5286,3.0,87,90,1.54,IS,1619581994
70,2446796,Bilma,18.6853,12.9164,28.58,12,0,3.39,NE,1619581995
71,1282256,Hithadhoo,-0.6,73.0833,28.04,66,97,0.27,MV,1619581995
72,2509769,Vélez-Málaga,36.7726,-4.1005,15.56,77,66,2.44,ES,1619581995
73,2088659,Panguna,-6.3164,155.4848,24.69,77,89,2.17,PG,1619581996
74,933995,Souillac,-20.5167,57.5167,24.0,94,75,8.23,MU,1619581996
75,6185377,Yellowknife,62.456,-114.3525,-7.0,53,90,6.69,CA,1619581997
76,5546220,Saint George,37.1041,-113.5841,15.56,36,75,7.2,US,1619581997
77,3652764,Puerto Ayora,-0.7393,-90.3518,23.9,91,33,3.26,EC,1619581929
78,2264557,Ponta do Sol,32.6667,-17.1,15.0,82,100,1.34,PT,1619581998
79,584717,Xaçmaz,41.4635,48.806,12.11,73,100,1.68,AZ,1619581998
80,4035715,Avarua,-21.2078,-159.775,27.0,78,91,3.09,CK,1619581926
81,2017155,Saskylakh,71.9167,114.0833,0.2,84,100,4.4,RU,1619581915
82,2126123,Chokurdakh,70.6333,147.9167,-1.05,96,100,3.35,RU,1619581921
83,1507390,Dikson,73.5069,80.5464,0.38,88,100,8.59,RU,1619581811
84,368246,Raja,8.4596,25.678,26.16,50,74,0.83,SS,1619582000
85,1791779,Wanning,18.8003,110.3967,27.79,76,54,2.35,CN,1619582000
86,751335,Bafra,41.5678,35.9069,14.44,87,0,1.03,TR,1619582000
87,1283285,Jumla,29.2747,82.1838,18.98,30,6,1.83,NP,1619582001
88,1218612,Murgab,37.4966,61.9714,19.0,39,0,6.17,TM,1619582001
89,2126199,Cherskiy,68.75,161.3,-0.79,80,98,6.06,RU,1619582001
90,3489440,Morant Bay,17.8815,-76.4093,27.0,65,20,3.6,JM,1619582002
91,2015179,Tommot,58.9564,126.2925,-1.97,87,100,3.22,RU,1619582002
92,1651810,Airai,-8.9266,125.4092,24.43,35,8,0.91,TL,1619582003
93,219414,Basoko,1.2391,23.616,21.43,95,100,1.25,CD,1619581725
94,1819729,Hong Kong,22.2855,114.1577,26.67,84,94,0.45,HK,1619581747
95,2036403,Jiupu,41.0667,122.95,18.19,17,2,7.63,CN,1619582004
96,3421765,Nanortalik,60.1432,-45.2371,1.15,90,31,2.91,GL,1619582004
97,3385106,Viçosa do Ceará,-3.5622,-41.0922,18.92,95,34,0.18,BR,1619581985
98,934322,Mahébourg,-20.4081,57.7,24.0,94,75,8.23,MU,1619582005
99,2160735,Lakes Entrance,-37.8811,147.981,17.78,68,27,1.79,AU,1619582005
100,2122493,Omsukchan,62.5333,155.8,-1.08,71,0,1.92,RU,1619582005
101,5134295,Rome,43.2128,-75.4557,13.0,50,90,4.12,US,1619582006
102,3836669,San Rafael,-34.6177,-68.3301,16.78,58,0,3.8,AR,1619581715
103,3408269,Afuá,-0.1567,-50.3867,23.86,95,100,1.92,BR,1619582006
104,286621,Salalah,17.0151,54.0924,28.0,74,40,0.51,OM,1619582007
105,3988392,Rosarito,32.3333,-117.0333,16.0,71,20,5.14,MX,1619582007
106,1214965,Kabanjahe,3.1001,98.4908,30.0,70,40,2.06,ID,1619582007
107,3831208,Qaanaaq,77.484,-69.3632,-0.76,91,100,2.59,GL,1619581960
108,1054463,Tsiroanomandidy,-18.7667,46.0333,17.8,92,0,1.14,MG,1619582008
109,3401845,Conceição do Araguaia,-8.2578,-49.2647,24.0,100,0,2.06,BR,1619582008
110,3382160,Cayenne,4.9333,-52.3333,23.0,94,20,1.54,GF,1619582009
111,2392308,Ouidah,6.3631,2.0851,29.0,84,40,5.14,BJ,1619582009
112,3533107,Álamo,20.9167,-97.6833,24.38,90,70,2.57,MX,1619582009
113,286245,Sur,22.5667,59.5289,33.39,28,97,3.62,OM,1619582010
114,1259784,Phek,25.6667,94.5,27.54,25,32,0.32,IN,1619582010
115,3459867,Joaíma,-16.6542,-41.0306,20.0,82,12,0.74,BR,1619582011
116,3430708,Mercedes,-34.6515,-59.4307,12.78,78,3,2.57,AR,1619582011
117,2139521,Noumea,-22.2763,166.4572,25.0,57,75,6.69,NC,1619582414
118,3374210,São Filipe,14.8961,-24.4956,22.11,76,48,3.87,CV,1619582012
119,3893629,Coquimbo,-29.9533,-71.3436,12.0,94,0,1.03,CL,1619582012
120,3355672,Lüderitz,-26.6481,15.1594,14.4,82,8,3.86,NA,1619581755
121,610864,Khani,41.9563,42.9566,9.0,100,90,2.06,GE,1619582013
122,3393692,Itarema,-2.9248,-39.9167,24.45,87,90,3.9,BR,1619581854
123,216404,Gbadolite,4.2833,21.0167,20.85,95,100,0.69,CD,1619582014
124,5866063,Kenai,60.5544,-151.2583,9.0,61,1,4.63,US,1619582014
125,4642938,Morristown,36.214,-83.2949,22.0,56,20,3.6,US,1619581795
126,2727234,Åkersberga,59.4794,18.2997,-2.22,86,40,0.51,SE,1619582015
127,1162316,Yazman,29.1212,71.7446,38.18,12,34,7.8,PK,1619582015
128,5671996,Polson,47.6936,-114.1632,10.0,55,99,1.31,US,1619582015
129,2015306,Tiksi,71.6872,128.8694,-7.15,81,100,6.76,RU,1619582016
130,3430863,Mar del Plata,-38.0023,-57.5575,15.0,93,0,2.57,AR,1619581751
131,1065158,Farafangana,-22.8167,47.8333,22.07,89,8,1.15,MG,1619581948
132,5848280,Kapaa,22.0752,-159.319,23.89,78,75,2.57,US,1619581952
133,2815824,Vreden,52.0379,6.828,5.0,55,5,3.28,DE,1619582017
134,1106677,Bambous Virieux,-20.3428,57.7575,24.0,94,75,8.23,MU,1619581890
135,2686469,Örnsköldsvik,63.2909,18.7153,-1.0,93,90,1.54,SE,1619582017
136,686090,Asău,46.4333,26.4,5.0,87,75,1.03,RO,1619582018
137,2126710,Beringovskiy,63.05,179.3167,0.98,90,99,3.51,RU,1619582018
138,6167817,Torbay,47.6666,-52.7314,5.0,87,90,2.93,CA,1619582018
139,2159220,Mackay,-21.15,149.2,25.0,69,40,7.72,AU,1619582019
140,3393536,Olinda,-8.0089,-34.8553,24.0,88,75,1.03,BR,1619582019
141,2220853,Yokadouma,3.5167,15.05,20.44,98,100,0.31,CM,1619582020
142,3645532,Ciudad Bolivar,8.1222,-63.5497,27.24,66,90,4.29,VE,1619582020
143,1515029,Ulaangom,49.9811,92.0667,11.42,33,100,1.67,MN,1619582020
144,4593142,Rock Hill,34.9249,-81.0251,18.89,82,1,2.06,US,1619581931
145,3430545,Morón,-34.6534,-58.6198,16.67,90,0,1.84,AR,1619582021
146,6113406,Prince Rupert,54.3161,-130.3201,9.0,87,90,7.72,CA,1619581856
147,2122090,Pevek,69.7008,170.3133,-3.81,82,100,3.96,RU,1619582021
148,1505991,Igarka,67.4667,86.5833,0.67,98,100,8.62,RU,1619582022
149,3346015,Sumbe,-11.2061,13.8437,25.9,86,40,1.17,AO,1619582022
150,638936,Rovaniemi,66.5,25.7167,-4.0,80,0,4.12,FI,1619582022
151,5882953,Aklavik,68.2191,-135.0107,-1.0,34,6,2.06,CA,1619581965
152,2077895,Alice Springs,-23.7,133.8833,24.0,22,0,6.17,AU,1619581920
153,886990,Marondera,-18.1853,31.5519,13.75,75,87,1.59,ZW,1619582023
154,2170577,Cooma,-36.2333,149.1333,17.0,45,60,1.54,AU,1619582024
155,2112802,Hasaki,35.7333,140.8333,22.22,52,75,6.17,JP,1619582024
156,4513583,Hamilton,39.1834,-84.5333,22.22,43,90,4.63,US,1619581976
157,964432,Port Alfred,-33.5906,26.891,18.05,75,100,2.85,ZA,1619582025
158,2028164,Deputatsky,69.3,139.9,-7.01,83,99,2.02,RU,1619582025
159,3654410,Manta,-0.95,-80.7333,24.0,88,75,2.57,EC,1619581823
160,293842,Kiryat Gat,31.61,34.7642,15.0,83,0,0.58,IL,1619581863
161,3451138,Rio Grande,-32.035,-52.0986,7.78,96,18,4.52,BR,1619582026
162,3932145,Pisco,-13.7,-76.2167,18.0,94,75,2.57,PE,1619582026
163,3038789,Abbeville,50.1,1.8333,6.67,83,95,1.35,FR,1619582027
164,2729907,Longyearbyen,78.2186,15.6401,-9.0,86,40,2.57,SJ,1619581820
165,2522325,Agüimes,27.9054,-15.4461,18.89,68,40,2.06,ES,1619582027
166,662920,Viişoara,46.55,23.9167,6.11,93,90,5.14,RO,1619582028
167,5563839,Fortuna,40.5982,-124.1573,10.56,100,1,5.66,US,1619581814
168,3664716,Canutama,-6.5339,-64.3831,22.5,99,99,0.95,BR,1619582028
169,3366880,Hermanus,-34.4187,19.2345,10.56,93,28,2.11,ZA,1619581981
170,2112309,Katsuura,35.1333,140.3,21.11,56,75,8.75,JP,1619582029
171,2455290,Kidal,18.4411,1.4078,30.35,16,71,1.44,ML,1619582029
172,1015776,Bredasdorp,-34.5322,20.0403,8.0,93,71,1.54,ZA,1619582029
173,3418910,Upernavik,72.7868,-56.1549,-4.17,89,98,3.41,GL,1619582030
174,653272,Kemijärvi,66.7131,27.4306,-4.31,87,86,1.99,FI,1619582030
175,4031574,Provideniya,64.3833,-173.3,1.0,80,0,3.78,RU,1619582030
176,1735106,George Town,5.4112,100.3354,31.0,70,20,1.03,MY,1619582022
177,778707,Mehamn,71.0357,27.8492,-3.0,68,75,7.72,NO,1619582031
178,3628473,San Cristobal,7.7669,-72.225,19.14,96,98,0.82,VE,1619581816
179,2167426,Emerald,-23.5333,148.1667,27.22,28,40,2.06,AU,1619582032
180,3373652,Oistins,13.0667,-59.5333,26.0,65,40,6.69,BB,1619582032
181,1254163,Trivandrum,8.4833,76.9167,32.0,66,20,2.06,IN,1619582032
182,1648759,Bima,-8.4667,118.7167,31.6,52,21,0.35,ID,1619582033
183,5469841,Grants,35.1473,-107.8514,2.0,80,75,2.26,US,1619581798
184,934479,Grand Gaube,-20.0064,57.6608,23.33,91,100,3.13,MU,1619582033
185,3423146,Ilulissat,69.2167,-51.1,2.0,69,40,2.06,GL,1619582034
186,5554428,Ketchikan,55.3422,-131.6461,8.0,100,90,7.72,US,1619582034
187,2208248,Kaitangata,-46.2817,169.8464,10.86,73,89,3.81,NZ,1619582035
188,3855065,General Roca,-39.0333,-67.5833,12.0,94,0,1.03,AR,1619582007
189,3939168,Huarmey,-10.0681,-78.1522,19.22,90,93,2.96,PE,1619582035
190,3372783,Ponta Delgada,37.7333,-25.6667,15.0,82,75,4.12,PT,1619581980
191,1151073,Prachuap Khiri Khan,12.2167,99.75,32.78,57,100,1.06,TH,1619582036
192,1518139,Tobol,52.6844,62.5794,7.72,70,71,4.42,KZ,1619582036
193,4034551,Faanui,-16.4833,-151.75,27.65,72,60,5.33,PF,1619582036
194,3530103,San Miguel de Cozumel,20.5083,-86.9458,27.0,83,75,4.12,MX,1619582037
195,905846,Mpika,-11.8343,31.4529,15.08,97,23,2.52,ZM,1619582037
196,7117100,Vila,42.0304,-8.1588,11.67,94,55,1.34,PT,1619581921
197,3899695,Ancud,-41.8697,-73.8203,12.22,100,90,1.89,CL,1619582038
198,6164831,Thessalon,46.2501,-83.5666,7.0,76,90,2.17,CA,1619582038
199,1072879,Ankazoabo,-22.2833,44.5167,20.23,81,0,1.26,MG,1619582038
200,304183,Bayir,37.2687,28.2167,10.0,87,0,1.03,TR,1619582039
201,2068110,Kununurra,-15.7667,128.7333,33.0,55,40,4.63,AU,1619582039
202,732825,Buhovo,42.7667,23.5667,11.67,81,40,2.57,BG,1619582040
203,6533368,Moranbah,-22.0016,148.0466,26.25,37,3,6.38,AU,1619581880
204,2090021,Namatanai,-3.6667,152.4333,29.01,71,41,3.57,PG,1619582040
205,141736,Bam,29.106,58.357,28.38,16,1,0.88,IR,1619582041
206,6165406,Thompson,55.7435,-97.8558,-7.0,53,75,3.6,CA,1619582041
207,2398269,Moanda,-1.5575,13.2178,21.22,97,100,1.08,GA,1619582041
208,5924351,Clyde River,70.4692,-68.5914,-10.0,73,1,3.09,CA,1619582042
209,3994535,Ocampo,21.65,-101.5,19.36,24,62,4.13,MX,1619582042
210,2122783,Katangli,51.7102,143.2326,1.87,74,100,7.47,RU,1619582042
211,161901,Kaka,37.3482,59.6143,25.71,35,13,4.04,TM,1619582043
212,2189343,Kaeo,-35.1,173.7833,17.78,67,82,1.34,NZ,1619581779
213,3839479,Rafaela,-31.2503,-61.4867,13.89,56,0,0.45,AR,1619582043
214,2016307,Solnechnyy,50.7214,136.6319,12.67,52,100,2.17,RU,1619582044
215,1282898,Pokhara,28.2333,83.9833,32.38,11,0,3.15,NP,1619582044
216,2629833,Husavik,66.0449,-17.3389,3.0,87,90,1.54,IS,1619582044
217,2392087,Porto-Novo,6.4965,2.6036,29.0,84,40,5.14,BJ,1619582045
218,1500485,Listvyagi,53.6772,86.951,9.53,95,100,4.23,RU,1619582045
219,362973,Abnūb,27.2696,31.1511,16.0,67,0,4.12,EG,1619582046
220,2022572,Khatanga,71.9667,102.5,-0.36,83,84,2.79,RU,1619582046
221,2396518,Port-Gentil,-0.7193,8.7815,27.53,79,100,2.02,GA,1619582046
222,1486321,Yar-Sale,66.8333,70.8333,-0.38,96,100,3.87,RU,1619582047
223,1733782,Labuan,5.2767,115.2417,31.0,74,40,0.51,MY,1619582047
224,3419842,Sisimiut,66.9395,-53.6735,-0.39,91,22,1.84,GL,1619582047
225,964712,Plettenberg Bay,-34.0527,23.3716,14.79,86,100,1.0,ZA,1619582048
226,1715015,Dicabisagan,17.0818,122.4157,27.48,63,76,2.85,PH,1619582048
227,672364,Negri,46.7,26.9667,5.0,87,75,1.03,RO,1619582048
228,2094342,Kavieng,-2.5744,150.7967,28.95,70,27,3.53,PG,1619582049
229,3372472,Vila Franca do Campo,37.7167,-25.4333,15.0,82,75,4.12,PT,1619582049
230,5338122,Clovis,36.8252,-119.7029,21.0,30,40,1.54,US,1619582012
231,2020838,Lensk,60.7253,114.9278,-0.78,63,93,1.39,RU,1619582050
232,2281120,Tabou,4.423,-7.3528,26.07,88,100,3.26,CI,1619582050
233,3407903,Almeirim,-1.5233,-52.5817,22.55,97,100,1.26,BR,1619582051
234,6137462,Saint-Augustin,51.226,-58.6502,2.43,99,100,0.67,CA,1619582051
235,1855540,Naze,28.3667,129.4833,24.0,69,75,5.14,JP,1619582051
236,4740364,Weatherford,32.7593,-97.7972,23.33,86,66,0.89,US,1619582052
237,1266668,Khonsa,27.0167,95.5667,30.43,23,23,2.36,IN,1619582052
238,3996426,Matamoros,25.5333,-103.25,29.44,29,99,4.92,MX,1619582053
239,964420,Port Elizabeth,-33.918,25.5701,16.0,88,75,1.54,ZA,1619581925
240,2122104,Petropavlovsk-Kamchatskiy,53.0452,158.6483,7.0,76,40,6.0,RU,1619582053
241,933677,Kasane,-17.8167,25.15,19.0,88,0,1.54,BW,1619582054
242,1520172,Petropavl,54.8753,69.1628,11.0,82,0,3.0,KZ,1619582054
243,3424607,Tasiilaq,65.6145,-37.6368,0.0,86,99,2.06,GL,1619582055
244,2171722,Charters Towers,-20.1,146.2667,24.7,49,63,4.63,AU,1619582055
245,5905393,Bonavista,48.6499,-53.1147,2.22,100,100,1.54,CA,1619582055
246,161974,Bereket,39.2446,55.5154,20.36,56,100,3.21,TM,1619582056
247,2038529,Baishishan,43.5833,127.5667,11.27,37,51,6.79,CN,1619582056
248,1526041,Atasū,48.6814,71.6433,21.85,25,32,7.1,KZ,1619582056
249,2017215,Sangar,63.9242,127.4739,-3.41,77,68,5.13,RU,1619582057
250,553350,Kamskiye Polyany,55.4307,51.4171,4.0,75,20,6.0,RU,1619582057
251,5895424,Bay Roberts,47.5999,-53.2648,5.0,94,100,2.5,CA,1619582057
252,3361142,Springbok,-29.6643,17.8865,12.0,50,22,1.55,ZA,1619582058
253,3887127,Iquique,-20.2208,-70.1431,21.0,52,0,4.12,CL,1619581829
254,2191562,Dunedin,-45.8742,170.5036,11.91,63,100,3.93,NZ,1619582058
255,3450188,Santa Isabel,-23.3156,-46.2214,17.0,94,75,1.54,BR,1619582059
256,2027296,Aykhal,66.0,111.5,-1.94,86,31,5.65,RU,1619582059
257,4021858,Guerrero Negro,27.9769,-114.0611,14.91,76,0,6.99,MX,1619581884
258,2101169,Aitape,-3.1374,142.3475,30.08,64,16,2.81,PG,1619582060
259,1244926,Hambantota,6.1241,81.1185,30.0,84,20,2.57,LK,1619582060
260,3452327,Presidente Olegário,-18.4178,-46.4181,16.67,100,4,1.55,BR,1619582060
261,537935,Kuzhenkino,57.7611,33.9508,0.67,91,100,3.0,RU,1619582061
262,2013258,Vrangel',42.7297,133.0839,8.16,88,87,3.86,RU,1619582061
263,5866583,Saint Paul Harbor,57.79,-152.4072,5.21,94,97,5.53,US,1619582061
264,3526756,Isla Mujeres,21.2311,-86.731,27.22,83,75,4.12,MX,1619582058
265,3361934,Saldanha,-33.0117,17.9442,11.0,93,41,2.06,ZA,1619582062
266,1791636,Weinan,34.5036,109.5089,20.0,42,0,5.0,CN,1619582062
267,361058,Alexandria,31.2156,29.9553,12.0,94,1,1.03,EG,1619582063
268,2145554,Ulladulla,-35.35,150.4667,19.44,68,75,4.63,AU,1619582063
269,2122605,Okhotsk,59.3833,143.3,0.39,74,100,1.57,RU,1619582064
270,5975004,High Level,58.5169,-117.136,-5.0,42,20,2.06,CA,1619582064
271,1856068,Nago,26.5881,127.9761,26.0,65,40,4.12,JP,1619582065
272,152877,Mtambile,-5.3833,39.7,25.98,83,84,3.32,TZ,1619582065
273,6067747,Matagami,49.7502,-77.6328,5.0,33,90,1.54,CA,1619581959
274,2210554,Sirte,31.2089,16.5887,26.64,23,95,8.94,LY,1619582065
275,1316703,Kyaukse,21.6,96.1333,32.0,55,20,3.6,MM,1619582066
276,1630789,Pontianak,-0.0333,109.3333,28.0,89,40,3.09,ID,1619581978
277,2136825,Isangel,-19.55,169.2667,27.0,65,40,5.14,VU,1619582066
278,673652,Măxineni,45.4,27.6333,5.77,86,100,4.04,RO,1619582067
279,3382226,Camopi,3.1655,-52.3158,21.62,99,95,0.91,GF,1619582067
280,1650527,Balikpapan,-1.2675,116.8289,29.69,64,88,1.36,ID,1619582063
281,1784554,Zhicheng,30.2956,111.5047,25.0,44,100,3.37,CN,1619582068
282,3946820,Barranca,-10.75,-77.7667,18.51,89,98,2.29,PE,1619582068
283,2412408,Nioro,13.35,-15.75,23.74,36,59,3.14,GM,1619582026
284,2088122,Port Moresby,-9.4431,147.1797,25.0,94,90,6.17,PG,1619582068
285,5859699,College,64.8569,-147.8028,9.0,17,75,1.54,US,1619582069
286,5935341,Dauphin,51.1494,-100.0502,2.0,48,75,5.66,CA,1619582069
287,2128025,Shizunai-furukawachō,42.3339,142.3669,10.27,58,100,3.55,JP,1619581971
288,3421193,Paamiut,61.994,-49.6678,2.39,74,36,1.76,GL,1619582070
289,3386213,Touros,-5.1989,-35.4608,24.0,94,40,2.06,BR,1619582070
290,2071860,Esperance,-33.8667,121.9,24.0,46,53,2.57,AU,1619582070
291,2374583,Bubaque,11.2833,-15.8333,25.64,62,100,5.04,GW,1619581916
292,5720495,Coos Bay,43.3665,-124.2179,12.0,76,1,5.66,US,1619582071
293,485660,Tsimmerbude,54.675,20.1347,0.0,93,75,2.0,RU,1619582071
294,2067119,Mandurah,-32.55,115.7,23.89,67,64,3.0,AU,1619581830
295,2303611,Esim,4.8699,-2.2405,26.83,85,100,2.63,GH,1619581878
296,215771,Isiro,2.7739,27.616,18.45,96,100,0.79,CD,1619582072
297,4362001,Mayo,38.8876,-76.5119,22.22,68,1,2.06,US,1619582072
298,2980080,Saint-François,46.4154,3.9054,10.0,93,100,1.54,FR,1619582073
299,5983607,Inuvik,68.3499,-133.7218,-1.0,34,5,2.06,CA,1619582073
300,1847947,Shingū,33.7333,135.9833,17.0,94,75,7.2,JP,1619582074
301,3395981,Maceió,-9.6658,-35.7353,24.0,94,75,2.06,BR,1619582074
302,1694759,Parangan,5.0839,119.9383,28.48,73,58,2.19,PH,1619582075
303,3388847,São Félix do Xingu,-6.6447,-51.995,22.27,99,100,0.9,BR,1619582075
304,7601762,Bairiki Village,1.3292,172.9752,29.0,74,40,2.57,KI,1619582075
305,1623197,Tual,-5.6667,132.75,28.56,63,40,1.65,ID,1619582076
306,3372760,Praia da Vitória,38.7333,-27.0667,15.0,88,75,3.16,PT,1619582076
307,2126682,Bilibino,68.0546,166.4372,-3.77,77,53,1.09,RU,1619581992
308,935214,Saint-Pierre,-21.3393,55.4781,24.44,78,0,3.09,RE,1619582077
309,240210,Birao,10.2849,22.7882,25.69,50,76,1.21,CF,1619582077
310,3984997,San Quintín,30.4833,-115.95,13.0,71,7,5.91,MX,1619582077
311,371745,Kutum,14.2,24.6667,21.07,18,55,3.49,SD,1619582078
312,1067565,Beloha,-25.1667,45.05,21.74,63,0,2.4,MG,1619582078
313,2451184,Sikasso,10.9167,-7.0,26.74,57,100,2.88,ML,1619582078
314,156111,Kyela,-9.5833,33.85,21.16,89,62,0.76,TZ,1619582079
315,6949678,Taitung City,22.7583,121.1444,28.0,57,75,3.09,TW,1619582079
316,1511783,Aleysk,52.4926,82.7822,16.56,39,100,10.41,RU,1619582079
317,5921357,Chilliwack,49.1747,-121.9443,13.0,62,100,1.03,CA,1619582080
318,3381538,Grand-Santi,4.25,-54.3833,21.43,98,100,0.88,GF,1619581945
319,3380290,Sinnamary,5.3833,-52.95,24.0,90,96,1.28,GF,1619582080
320,3933874,Oxapampa,-10.5775,-75.4017,14.61,99,99,0.21,PE,1619582081
321,315202,Eskişehir,39.7767,30.5206,5.0,93,0,1.03,TR,1619582072
322,3685702,Cravo Norte,6.3017,-70.2041,24.38,90,100,2.57,CO,1619582081
323,1516589,Zhezkazgan,47.8043,67.7144,21.38,25,81,2.89,KZ,1619582082
324,2637487,Southampton,50.904,-1.4043,7.78,67,98,1.79,GB,1619582082
325,1863997,Fukuechō,32.6881,128.8419,18.0,100,75,3.6,JP,1619582083
326,2646557,Horsham,51.064,-0.3272,6.11,75,0,2.57,GB,1619582083
327,2015913,Suntar,62.1444,117.6319,0.06,51,77,1.78,RU,1619582083
328,2026786,Berezovyy,51.6667,135.7,7.07,86,100,3.07,RU,1619582084
329,2656708,Ayr,55.4627,-4.6339,2.0,93,50,0.51,GB,1619582084
330,3948613,Acarí,-15.4311,-74.6158,20.71,80,92,1.5,PE,1619582085
331,88319,Benghazi,32.1167,20.0667,23.39,31,65,8.22,LY,1619582040
332,3883457,Lebu,-37.6167,-73.65,12.52,93,61,0.95,CL,1619582086
333,1493162,Salym,60.0625,71.4789,7.66,59,100,2.09,RU,1619582087
334,2138555,Poum,-20.2333,164.0167,24.86,59,3,9.62,NC,1619582087
335,1337610,Thinadhoo,0.5333,72.9333,28.01,65,97,1.49,MV,1619581924
336,292968,Abu Dhabi,24.4667,54.3667,31.0,27,0,2.06,AE,1619581942
337,3174050,Province of Mantua,45.1667,10.7833,10.56,94,94,2.54,IT,1619582088
338,6255012,Flinders,-34.5833,150.8552,23.33,63,81,1.34,AU,1619581937
339,3466165,Cidreira,-30.1811,-50.2056,14.31,81,4,3.66,BR,1619582089
340,3939761,Hualmay,-11.0964,-77.6139,18.71,90,99,3.58,PE,1619581831
341,5712169,Baker City,44.7749,-117.8344,10.0,53,1,2.06,US,1619582089
342,3680090,Juradó,7.1053,-77.7641,24.34,90,89,1.49,CO,1619582090
343,554894,Izberbash,42.5696,47.8645,11.0,87,75,0.15,RU,1619582090
344,3347019,Mossamedes,-15.1961,12.1522,24.14,70,61,3.98,AO,1619582090
345,1735902,Sibu,2.3,111.8167,30.0,70,40,1.03,MY,1619582091
346,2181625,Te Anau,-45.4167,167.7167,8.41,88,100,0.83,NZ,1619582091
347,1798946,Pengcheng,36.4311,114.17,23.17,9,51,5.8,CN,1619582091
348,2119283,Zyryanka,65.75,150.85,0.09,90,79,5.62,RU,1619582092
349,1701054,Marawi,7.9986,124.2928,28.89,76,76,3.13,PH,1619582093
350,556268,Ostrovnoy,68.0531,39.5131,-4.33,84,100,3.21,RU,1619582093
351,3412093,Vestmannaeyjar,63.4427,-20.2734,6.17,78,4,8.28,IS,1619582093
352,3648546,Barinas,8.6226,-70.2075,24.0,94,100,1.03,VE,1619582094
353,1035025,Nacala,-14.5428,40.6728,23.2,96,22,2.39,MZ,1619582094
354,1131461,Oruzgan,32.8333,66.0,23.57,16,23,0.65,AF,1619582095
355,2094027,Kieta,-6.2167,155.6333,29.28,68,70,1.18,PG,1619582095
356,4012344,Cuencamé de Ceniceros,24.8711,-103.6964,22.03,36,92,8.22,MX,1619582095
357,777682,Skjervøy,70.0311,20.9714,-0.07,69,100,4.77,NO,1619582096
358,3372964,Lagoa,39.05,-27.9833,15.22,77,100,4.46,PT,1619581819
359,3445026,Vila Velha,-20.3297,-40.2925,23.0,94,0,2.48,BR,1619582096
360,5970478,Harbour Breton,47.4833,-55.7983,4.04,90,63,5.71,CA,1619582096
361,113659,Tabas,33.5959,56.9244,28.68,22,98,0.86,IR,1619582097
362,64013,Bosaso,11.2842,49.1816,29.85,63,77,3.29,SO,1619582097
363,5606401,Sandpoint,48.2766,-116.5533,12.0,40,1,1.54,US,1619581981
364,462626,Zilair,52.2332,57.4392,4.68,82,95,2.81,RU,1619582098
365,5000500,Madison Heights,42.4859,-83.1052,25.0,43,75,2.57,US,1619582098
366,3833112,Veinticinco de Mayo,-35.4323,-60.1727,12.78,62,1,0.45,AR,1619582099
367,3405051,Borba,-4.3878,-59.5939,22.75,98,99,0.6,BR,1619582099
368,3466980,Caravelas,-17.7125,-39.2481,22.81,82,52,2.27,BR,1619582035
369,2294915,Takoradze,4.8845,-1.7554,27.3,84,93,3.04,GH,1619582016
370,108410,Riyadh,24.6877,46.7219,29.0,23,0,4.63,SA,1619582600
371,2738381,Lata,40.1629,-8.3327,14.44,88,58,1.35,PT,1619582100
372,3843123,Neuquén,-38.9516,-68.0591,12.0,94,0,1.03,AR,1619581898
373,2377450,Nouakchott,18.0858,-15.9785,20.0,77,0,7.2,MR,1619582100
374,3430443,Necochea,-38.5473,-58.7368,13.89,86,0,1.79,AR,1619582101
375,569681,Chebsara,59.2002,38.8356,2.0,93,90,2.0,RU,1619582101
376,1494523,Polovinnoye,54.7914,65.9864,7.79,73,100,4.25,RU,1619582102
377,3670745,Riohacha,11.5444,-72.9072,25.65,78,96,4.84,CO,1619582102
378,4063619,Gadsden,34.0143,-86.0066,18.0,94,1,1.51,US,1619581922
379,895061,Bindura,-17.3019,31.3306,15.0,84,12,1.79,ZW,1619582103
380,1525376,Bestöbe,52.4994,73.0975,17.51,61,100,10.52,KZ,1619582103
381,1856392,Muroto-misakicho,33.2833,134.15,18.0,100,75,4.12,JP,1619582104
382,1495586,Parabel',58.6978,81.4825,9.51,76,100,1.32,RU,1619582104
383,2122262,Palana,59.1167,159.9667,-1.52,87,100,4.75,RU,1619582104
384,2521804,Altea,38.5989,-0.0514,15.0,91,8,0.45,ES,1619582105
385,2126785,Belaya Gora,68.5333,146.4167,-0.93,97,100,1.23,RU,1619582105
386,2219235,Ubari,26.5921,12.7805,27.69,20,68,6.09,LY,1619582063
387,4328010,Houma,29.5958,-90.7195,25.0,88,90,4.63,US,1619582106
388,2121373,Seymchan,62.8833,152.4333,-2.38,86,27,1.27,RU,1619582106
389,2381334,Atar,20.5169,-13.0499,24.74,28,76,2.79,MR,1619581901
390,6067472,Marystown,47.1666,-55.1483,3.99,91,47,4.05,CA,1619582107
391,1492607,Severnoye,56.3491,78.3619,6.74,92,100,3.54,RU,1619582107
392,2110560,Yamada,39.4667,141.95,18.46,50,99,3.81,JP,1619582108
393,1267390,Kavaratti,10.5669,72.642,28.94,73,7,2.21,IN,1619581822
394,2121385,Severo-Kuril'sk,50.6789,156.125,1.29,94,100,7.17,RU,1619582108
395,1705441,Lubao,14.9167,120.55,33.0,51,75,2.06,PH,1619582108
396,2092164,Lorengau,-2.0226,147.2712,29.97,66,14,3.57,PG,1619582109
397,1278987,Allāpalli,19.4167,80.0667,38.63,15,16,0.77,IN,1619582109
398,2127202,Anadyr,64.75,177.4833,0.0,80,20,6.0,RU,1619582109
399,2527087,Tiznit Province,29.5833,-9.5,13.14,84,50,1.84,MA,1619582110
400,4720067,Lavaca,28.615,-96.6261,25.0,88,90,5.14,US,1619582110
401,1529376,Korla,41.7597,86.1469,20.24,22,27,4.4,CN,1619582111
402,3460355,Jaciara,-15.9653,-54.9683,22.17,67,88,1.08,BR,1619582111
403,1168312,Pasni,25.2631,63.471,27.99,74,28,0.95,PK,1619582111
404,448149,Sinjār,36.3209,41.8754,18.5,55,0,1.61,IQ,1619582112
405,2377457,Nouadhibou,20.931,-17.0347,18.0,94,0,4.63,MR,1619582112
406,2173323,Bundaberg,-24.85,152.35,26.0,50,75,7.2,AU,1619582112
407,3671450,Inírida,3.8653,-67.9239,22.73,98,100,0.93,CO,1619582113
408,72181,Marzuq,14.4,46.4667,21.98,70,72,1.4,YE,1619582113
409,702337,Makariv,50.4641,29.8113,2.78,100,1,1.0,UA,1619582113
410,1485724,Yurga,55.7231,84.8861,8.0,96,100,4.24,RU,1619582114
411,3533462,Acapulco de Juárez,16.8634,-99.8901,26.41,72,0,1.63,MX,1619581874
412,1508427,Charyshskoye,51.3978,83.5598,15.58,57,100,4.12,RU,1619582114
413,4033557,Tautira,-17.7333,-149.15,29.0,65,40,1.54,PF,1619581958
414,5038045,Monticello,45.3055,-93.7941,6.11,93,100,3.09,US,1619582115
415,1738050,Marabu,4.4148,114.0089,30.0,74,40,2.57,MY,1619582116
416,569223,Cherepovets,59.1333,37.9,2.0,93,90,2.0,RU,1619582116
417,5411479,Alamosa,37.4695,-105.87,6.0,39,1,3.05,US,1619582116
418,350203,Rosetta,31.4044,30.4164,12.0,94,0,1.03,EG,1619582117
419,4791259,Virginia Beach,36.8529,-75.978,21.11,66,76,1.34,US,1619582490
420,1265053,Lar,26.2039,83.9717,38.57,5,0,0.77,IN,1619582117
421,2027044,Batagay,67.6333,134.6333,-4.41,81,100,2.21,RU,1619582118
422,962367,Richards Bay,-28.783,32.0377,21.2,88,95,3.65,ZA,1619582118
423,6160362,Swan River,52.1058,-101.2676,1.0,47,71,4.63,CA,1619582119
424,5692947,Williston,48.147,-103.618,13.33,37,51,1.93,US,1619581894
425,3357804,Eenhana,-17.4667,16.3333,19.0,55,7,1.54,NA,1619582119
426,2396853,Omboué,-1.5746,9.2618,25.78,92,100,1.91,GA,1619582119
427,2027244,Bagdarin,54.4333,113.6,-1.65,43,100,3.97,RU,1619582120
428,1714733,Dingle,10.9995,122.6711,29.54,63,100,4.62,PH,1619582120
429,3466594,Cavalcante,-13.7975,-47.4583,20.03,80,28,0.57,BR,1619581842
430,5577158,Fort Morgan,40.2503,-103.8,8.0,87,90,7.72,US,1619582121
431,6111867,Port Hawkesbury,45.6169,-61.3485,3.33,93,90,6.17,CA,1619582121
432,1506268,Gornopravdinsk,60.05,69.9,7.79,59,100,2.36,RU,1619582121
433,3391360,Santana,-0.0583,-51.1817,26.0,94,20,1.54,BR,1619582122
434,2121909,Poronaysk,49.2167,143.1167,3.76,71,100,4.59,RU,1619582122
435,1785036,Zhangye,38.9342,100.4517,16.34,11,59,6.76,CN,1619582123
436,3470871,Barão de Melgaço,-16.1944,-55.9675,23.0,83,0,2.06,BR,1619582123
437,2381972,Adrar,20.5022,-10.0711,25.36,25,53,4.26,MR,1619582123
438,2137773,Vao,-22.6667,167.4833,23.22,55,0,7.5,NC,1619582124
439,2064735,Nhulunbuy,-12.2333,136.7667,25.0,100,75,2.06,AU,1619582114
440,5267537,Plover,44.4564,-89.544,8.89,93,90,4.4,US,1619582124
441,3510885,Cabral,18.25,-71.2167,23.44,81,12,1.38,DO,1619582125
442,1252668,Ziro,27.6333,93.8333,30.0,54,20,2.57,IN,1619582125
443,915285,Kalengwa,-13.4659,25.0027,16.91,91,80,1.91,ZM,1619582125
444,2647984,Great Yarmouth,52.6083,1.7305,7.78,87,66,3.09,GB,1619582126
445,1488903,Turukhansk,65.8167,87.9833,0.68,98,100,8.16,RU,1619582126
446,3840300,Presidencia Roque Sáenz Peña,-26.7852,-60.4388,12.05,80,0,2.14,AR,1619582127
447,5557293,Sitka,57.0531,-135.33,8.0,87,90,3.02,US,1619582127
448,1502073,Krasnosel'kup,65.7,82.4667,0.45,100,100,4.15,RU,1619582127
449,2179537,Wellington,-41.2866,174.7756,15.0,51,13,4.63,NZ,1619581990
450,3579925,St. George's,12.0564,-61.7485,27.0,78,20,9.77,GD,1619582128
451,1176048,Jati,24.3539,68.2671,30.56,49,0,4.91,PK,1619582128
452,1280037,Shache,38.4167,77.2406,22.48,14,0,4.03,CN,1619582129
453,2027042,Batagay-Alyta,67.8006,130.4114,-6.71,64,34,1.38,RU,1619582129
454,3175096,Laas,46.6166,10.7002,10.56,93,75,2.57,IT,1619582129
455,3868633,Vallenar,-28.5708,-70.7581,14.42,85,36,0.23,CL,1619582130
456,2021618,Krasnokamensk,50.0979,118.0369,0.73,67,100,6.41,RU,1619582130
457,2032614,Baruun-Urt,46.6806,113.2792,6.33,22,67,8.35,MN,1619582130
458,336454,Ginir,7.1333,40.7,15.69,86,76,1.82,ET,1619582131
459,2562247,Marsaxlokk,35.8419,14.5431,16.0,88,0,4.63,MT,1619582131
460,1052373,Beira,-19.8436,34.8389,23.0,94,20,2.4,MZ,1619582132
461,3393922,Nísia Floresta,-6.0911,-35.2086,25.0,88,20,2.57,BR,1619582132
462,4644312,Murfreesboro,35.8456,-86.3903,23.0,53,20,5.14,US,1619581984
463,3137469,Sørland,67.667,12.6934,2.89,62,45,5.77,NO,1619582132
464,1786538,Yining,29.0361,114.5636,18.98,84,100,0.79,CN,1619582133
465,3981391,Tomatlán,19.9333,-105.25,22.09,82,92,0.85,MX,1619582133
466,4985180,Bay City,43.5945,-83.8889,11.0,76,40,2.74,US,1619582134
467,2618795,Klaksvík,62.2266,-6.589,3.0,75,75,5.14,FO,1619582134
468,3395497,Maracaçumé,-2.0428,-45.9592,22.47,98,36,1.07,BR,1619582134
469,5563397,Eureka,40.8021,-124.1637,10.56,87,1,4.12,US,1619582135
470,186180,Moyale,3.5167,39.0584,21.3,70,6,1.35,KE,1619582135
471,4014336,Chihuahua,28.5,-106.0,24.0,16,40,4.12,MX,1619582136
472,1626542,Sorong,-0.8833,131.25,28.41,76,67,1.86,ID,1619582136
473,3893726,Constitución,-35.3333,-72.4167,13.97,63,29,2.98,CL,1619582106
474,2838053,Schmallenberg,51.15,8.3,0.56,80,0,1.27,DE,1619582137
475,3145614,Storforshei,66.4043,14.5233,0.0,81,82,0.45,NO,1619582137
476,1269562,Jagtiāl,18.8,78.9333,36.56,20,1,1.47,IN,1619582137
477,893485,Chiredzi,-21.05,31.6667,16.52,65,0,0.67,ZW,1619582138
478,2206089,Sandy Bay,-42.913,147.3532,19.44,51,75,4.63,AU,1619582138
479,3694112,Paita,-5.0892,-81.1144,21.08,78,94,5.67,PE,1619582139
480,1795196,Tongchuanshi,35.0806,109.0897,18.85,24,35,8.38,CN,1619582139
481,780687,Berlevåg,70.8578,29.0864,-3.0,68,75,7.72,NO,1619582139
482,5478673,Meadow Lake,34.8014,-106.5436,11.11,53,40,9.77,US,1619582140
483,3421319,Nuuk,64.1835,-51.7216,0.0,93,20,4.63,GL,1619582081
484,2399371,Makokou,0.5738,12.8642,21.47,98,100,1.77,GA,1619582140
485,1731248,Alugan,12.2188,125.4808,27.8,70,82,3.77,PH,1619582141
486,3147441,Lindås,60.7381,5.16,2.78,70,15,2.24,NO,1619582141
487,3869716,Tocopilla,-22.092,-70.1979,18.77,72,27,1.55,CL,1619581944
488,1498161,Muzhi,65.3667,64.6667,0.72,86,100,2.69,RU,1619582142
489,2654970,Brae,60.3964,-1.353,4.0,81,100,4.63,GB,1619582142
490,102527,Sakakah,29.9697,40.2064,17.0,27,0,1.54,SA,1619582088
491,1276389,Betūl,21.9153,77.8961,34.38,14,0,3.76,IN,1619582142
492,457860,Līvāni,56.3543,26.1758,-0.71,94,17,2.08,LV,1619582143
493,1337607,Kudahuvadhoo,2.6708,72.8944,28.15,72,54,2.18,MV,1619582143
494,5861897,Fairbanks,64.8378,-147.7164,9.0,18,1,1.54,US,1619581891
495,3464008,Esmeraldas,-19.7625,-44.3139,20.0,94,75,1.54,BR,1619582144
496,2269142,Colares,38.7992,-9.4469,15.0,88,23,5.36,PT,1619582144
497,5484874,Portales,34.1862,-103.3344,20.0,18,20,6.17,US,1619582144
498,2270385,Camacha,33.0833,-16.3333,16.0,82,40,4.63,PT,1619582145
499,2171099,Codrington,-38.2667,141.9667,16.57,59,100,2.4,AU,1619582145
500,3386931,Tamandaré,-8.7597,-35.1047,24.84,88,11,2.19,BR,1619582103
501,2450849,Sokolo,14.7328,-6.1219,32.52,12,10,1.13,ML,1619582146
502,110690,Faya,18.3851,42.4509,15.0,77,75,3.09,SA,1619582146
503,2013921,Ust-Kuyga,70.0167,135.6,-6.72,65,93,0.89,RU,1619582146
504,53654,Mogadishu,2.0371,45.3438,29.0,65,40,2.57,SO,1619582147
505,1270343,Hārij,23.7,71.9,33.27,32,72,3.09,IN,1619582147
506,2123814,Leningradskiy,69.3833,178.4167,-3.39,82,38,4.33,RU,1619582011
507,1636022,Martapura,-3.4167,114.85,30.0,74,40,3.6,ID,1619582148
508,1710519,Isabela,6.7085,121.9711,29.0,79,75,3.6,PH,1619582148
509,1079048,Ambovombe,-25.1667,46.0833,21.25,80,0,1.76,MG,1619582149
510,3421982,Maniitsoq,65.4167,-52.9,0.5,79,35,4.43,GL,1619582149
511,1645528,Denpasar,-8.65,115.2167,30.0,62,20,4.12,ID,1619582149
512,3395458,Maragogi,-9.0122,-35.2225,24.76,87,10,2.11,BR,1619581867
513,698316,Osypenko,46.9136,36.8253,9.44,100,100,4.02,UA,1619582150
514,3697441,El Alto,-4.2714,-81.2147,21.2,75,84,6.27,PE,1619582150
515,2986626,Plouzané,48.3833,-4.6167,7.0,93,20,2.57,FR,1619582151
516,2173911,Broken Hill,-31.95,141.4333,22.0,28,35,4.63,AU,1619582151
517,3406844,Baião,-2.7906,-49.6717,22.09,98,100,1.08,BR,1619582151
518,3402648,Carutapera,-1.195,-46.02,25.06,86,100,1.6,BR,1619582152
519,5380437,Pacific Grove,36.6177,-121.9166,12.22,84,0,2.15,US,1619582152
520,2051523,Bratsk,56.1325,101.6142,4.0,26,6,3.0,RU,1619582153
521,4503351,Ocean City,39.2776,-74.5746,16.0,72,1,2.57,US,1619582153
522,2283016,Odienné,9.51,-7.5692,23.48,82,98,2.97,CI,1619582153
523,5909514,Brooks,50.5834,-111.8851,11.0,35,100,4.63,CA,1619582154
524,1183090,Bat Khela,34.6167,71.9714,28.66,21,5,1.85,PK,1619582154
525,3995647,Moctezuma,29.8,-109.6667,16.15,41,11,4.81,MX,1619582154
526,2246451,Saint-Louis,16.3333,-15.0,25.0,47,0,2.06,SN,1619582155
527,214614,Kamina,-8.7386,24.9906,17.11,95,15,0.83,CD,1619582155
528,3421719,Narsaq,60.9167,-46.05,4.0,70,18,3.09,GL,1619582155
529,2511150,Santa Lucía,27.9117,-15.5407,18.89,68,40,2.06,ES,1619582156
530,1226260,Trincomalee,8.5711,81.2335,29.91,64,76,2.71,LK,1619582156
531,2417831,Mamou,10.5,-12.0,21.72,62,75,1.58,GN,1619582157
532,2065594,Mount Isa,-20.7333,139.5,29.0,21,0,2.57,AU,1619582157
533,3938455,Ilabaya,-17.4208,-70.5133,17.51,54,84,0.15,PE,1619582158
534,113636,Tafresh,34.692,50.013,15.0,58,90,5.14,IR,1619582158
535,86049,Jalu,29.0331,21.5482,21.06,24,0,4.34,LY,1619582159
536,2068655,Katherine,-14.4667,132.2667,32.0,48,75,8.23,AU,1619582159
537,1726449,Basco,20.4487,121.9702,24.63,73,24,5.8,PH,1619582159
538,6301965,Palmerston,-12.486,130.9833,33.33,55,75,3.6,AU,1619582160
539,2138285,Tadine,-21.55,167.8833,23.77,53,0,7.36,NC,1619582160
540,2038154,Changping,40.2186,116.2197,22.0,12,0,7.0,CN,1619582161
541,3470137,Belmonte,-15.8631,-38.8828,23.0,78,40,1.03,BR,1619582161
542,3357114,Grootfontein,-19.5667,18.1167,14.26,65,0,1.86,NA,1619582162
543,2141305,Fayaoué,-20.65,166.5333,24.57,59,11,9.24,NC,1619582162
544,2063036,Port Lincoln,-34.7333,135.8667,21.74,42,60,0.51,AU,1619581891
545,2125711,Esso,55.9333,158.7,2.33,96,100,1.47,RU,1619582163
546,2347468,Bauchi,10.5,10.0,26.21,48,46,1.31,NG,1619582163
547,237379,Ndélé,8.4109,20.6473,26.55,53,99,2.16,CF,1619582164
548,2655273,Bodmin,50.4715,-4.7243,8.0,87,75,3.09,GB,1619582164
549,2027316,Ayan,56.45,138.1667,-0.58,89,100,6.92,RU,1619582164
550,664475,Turceni,44.6833,23.3667,6.67,88,100,4.75,RO,1619582165
551,1278122,Avanigadda,16.0215,80.9181,32.0,70,40,2.57,IN,1619582165
552,1252783,Yārāda,17.65,83.2667,32.0,66,20,4.63,IN,1619582166
553,3176923,Fiumicino,41.7675,12.2291,15.0,94,40,3.6,IT,1619582166
554,2017945,Petrovsk-Zabaykal'skiy,51.273,108.843,2.7,25,33,6.03,RU,1619582166
555,988698,Knysna,-34.0363,23.0471,14.0,100,75,1.03,ZA,1619582167
556,4032420,Neiafu,-18.65,-173.9833,25.0,94,90,7.2,TO,1619582167
557,3557758,Guane,22.2025,-84.0875,23.76,73,3,2.89,CU,1619582167
558,1254046,Tura,25.5198,90.2201,33.73,34,0,2.9,IN,1619582168
559,2110227,Butaritari,3.0707,172.7902,28.04,76,93,3.64,KI,1619583397
560,4030556,Rikitea,-23.1203,-134.9692,24.85,74,100,5.21,PF,1619583397
561,625721,Lyuban',52.7985,28.0048,2.97,83,100,2.26,BY,1619583398
562,5983720,Iqaluit,63.7506,-68.5145,-9.0,92,40,1.03,CA,1619583398
563,4020109,Atuona,-9.8,-139.0333,26.65,74,24,5.56,PF,1619583398
564,5847411,Kahului,20.8947,-156.47,26.0,61,40,3.6,US,1619583221
565,5122534,Jamestown,42.097,-79.2353,18.0,52,1,4.63,US,1619583399
566,479028,Unecha,52.8459,32.6739,2.38,84,99,3.78,RU,1619583399
567,2132606,Samarai,-10.6167,150.6667,26.45,79,99,3.54,PG,1619583400
568,1518768,Stepnyak,52.8339,70.7803,12.49,72,57,8.9,KZ,1619583400
569,3839307,Rawson,-43.3002,-65.1023,18.38,43,86,4.97,AR,1619583400
570,2075265,Busselton,-33.65,115.3333,24.44,64,3,0.45,AU,1619583401
571,2163355,Hobart,-42.8794,147.3294,18.89,48,75,4.63,AU,1619583400
572,546105,Nikolskoye,59.7035,30.7861,1.67,93,90,1.54,RU,1619583401
573,5110365,Broome,42.2506,-75.833,18.0,45,75,4.12,US,1619583402
574,2206939,Bluff,-46.6,168.3333,13.33,80,69,5.36,NZ,1619583402
575,3471451,Arraial do Cabo,-22.9661,-42.0278,22.7,82,98,2.83,BR,1619583402
576,2074865,Carnarvon,-24.8667,113.6333,35.0,14,0,3.09,AU,1619583403
577,3466704,Castro,-24.7911,-50.0119,11.51,97,4,2.19,BR,1619583403
578,4031637,Lavrentiya,65.5833,-171.0,0.71,92,100,1.03,RU,1619583136
579,6201424,Mataura,-46.1927,168.8643,13.33,80,100,5.36,NZ,1619583404
580,3833367,Ushuaia,-54.8,-68.3,5.0,87,40,6.17,AR,1619583404
581,3443061,Chui,-33.6971,-53.4616,10.9,85,0,2.83,UY,1619583404
582,5855927,Hilo,19.7297,-155.09,27.0,54,90,1.54,US,1619583180
583,2070998,Geraldton,-28.7667,114.6,31.0,23,2,3.6,AU,1619583405
584,935215,Saint-Philippe,-21.3585,55.7679,25.0,73,75,2.06,RE,1619583406
585,2174444,Bowen,-20.0167,148.2333,25.0,65,75,7.2,AU,1619583406
586,2212775,Sabha,27.0377,14.4283,24.56,14,7,4.01,LY,1619583406
587,232571,Kalangala,-0.3089,32.225,23.43,68,39,5.7,UG,1619583407
588,553416,Kamenskiy,50.8855,45.488,5.94,69,94,2.58,RU,1619583407
589,4032243,Vaini,-21.2,-175.2,22.0,94,90,5.14,TO,1619583407
590,2342490,Funtua,11.5233,7.3081,25.34,51,79,3.82,NG,1619583408
591,1006984,East London,-33.0153,27.9116,14.0,77,0,1.54,ZA,1619583408
592,4726521,San Patricio,28.017,-97.5169,26.0,89,90,6.69,US,1619583409
593,1712961,Gigmoto,13.7796,124.39,29.1,59,74,2.95,PH,1619583409
594,2630299,Hofn,64.2539,-15.2082,4.35,62,4,7.31,IS,1619583409
595,1649150,Bengkulu,-3.8004,102.2655,29.54,66,59,2.1,ID,1619583280
596,2180815,Tuatapere,-46.1333,167.6833,13.33,80,90,5.36,NZ,1619583410
597,3985710,Cabo San Lucas,22.8909,-109.9124,21.11,79,23,6.74,MX,1619583410
598,5880054,Barrow,71.2906,-156.7887,-7.0,86,90,1.54,US,1619583411
599,2067089,Maningrida,-12.0667,134.2667,29.43,69,60,5.21,AU,1619583411
600,5282297,Bethel,41.3712,-73.414,11.67,54,1,1.26,US,1619583411
601,1517060,Zaysan,47.4667,84.8667,17.68,32,45,2.39,KZ,1619583412
602,1633419,Padang,-0.9492,100.3543,29.0,79,20,2.57,ID,1619583412
603,1064275,Ihosy,-22.4,46.1167,18.26,92,90,2.18,MG,1619583413
604,4160812,Key West,24.5557,-81.7826,26.0,65,90,4.12,US,1619583413
605,1516048,Khovd,48.0056,91.6419,14.45,21,99,1.71,MN,1619583414
606,1490256,Talnakh,69.4865,88.3972,-0.85,79,100,5.31,RU,1619583414
607,2155415,New Norfolk,-42.7826,147.0587,18.89,72,98,2.24,AU,1619583414
608,2156643,Mount Gambier,-37.8333,140.7667,17.0,59,90,2.06,AU,1619583415
609,6170031,Tuktoyaktuk,69.4541,-133.0374,-10.0,73,20,6.17,CA,1619583415
610,792945,Banatski Karlovac,45.0472,21.0161,12.22,71,90,9.77,RS,1619583415
611,3874787,Punta Arenas,-53.15,-70.9167,4.0,93,40,4.12,CL,1619583281
612,2123979,Kuril'sk,45.2333,147.8833,3.42,52,70,1.25,RU,1619583416
613,616944,Aragats,40.4889,44.3528,14.0,72,88,0.51,AM,1619583416
614,2194098,Ahipara,-35.1667,173.1667,16.84,57,14,4.86,NZ,1619583417
615,2110227,Butaritari,3.0707,172.7902,28.04,76,93,3.64,KI,1619583397
616,4030556,Rikitea,-23.1203,-134.9692,24.85,74,100,5.21,PF,1619583397
617,625721,Lyuban',52.7985,28.0048,2.97,83,100,2.26,BY,1619583398
618,5983720,Iqaluit,63.7506,-68.5145,-9.0,92,40,1.03,CA,1619583419
619,4020109,Atuona,-9.8,-139.0333,26.65,74,24,5.56,PF,1619583398
620,5847411,Kahului,20.8947,-156.47,26.0,61,40,3.6,US,1619583181
621,5122534,Jamestown,42.097,-79.2353,18.0,52,1,4.63,US,1619583254
622,479028,Unecha,52.8459,32.6739,2.38,84,99,3.78,RU,1619583420
623,2132606,Samarai,-10.6167,150.6667,26.45,79,99,3.54,PG,1619583420
624,1518768,Stepnyak,52.8339,70.7803,12.49,72,57,8.9,KZ,1619583400
625,3839307,Rawson,-43.3002,-65.1023,18.38,43,86,4.97,AR,1619583400
626,2075265,Busselton,-33.65,115.3333,24.44,64,3,0.45,AU,1619583401
627,2163355,Hobart,-42.8794,147.3294,18.89,48,75,4.63,AU,1619583400
628,546105,Nikolskoye,59.7035,30.7861,1.67,93,90,1.54,RU,1619583401
629,5110365,Broome,42.2506,-75.833,18.0,45,75,4.12,US,1619583402
630,2206939,Bluff,-46.6,168.3333,13.33,80,69,5.36,NZ,1619583402
631,3471451,Arraial do Cabo,-22.9661,-42.0278,22.7,82,98,2.83,BR,1619583402
632,2074865,Carnarvon,-24.8667,113.6333,35.0,14,0,3.09,AU,1619583403
633,3466704,Castro,-24.7911,-50.0119,11.51,97,4,2.19,BR,1619583403
634,4031637,Lavrentiya,65.5833,-171.0,0.71,92,100,1.03,RU,1619583136
635,6201424,Mataura,-46.1927,168.8643,13.33,80,100,5.36,NZ,1619583404
636,3833367,Ushuaia,-54.8,-68.3,5.0,87,40,6.17,AR,1619583404
637,3443061,Chui,-33.6971,-53.4616,10.9,85,0,2.83,UY,1619583404
638,5855927,Hilo,19.7297,-155.09,27.0,54,90,1.54,US,1619583180
639,2070998,Geraldton,-28.7667,114.6,31.0,23,2,3.6,AU,1619583405
640,935215,Saint-Philippe,-21.3585,55.7679,25.0,73,75,2.06,RE,1619583406
641,2174444,Bowen,-20.0167,148.2333,25.0,65,75,7.2,AU,1619583406
642,2212775,Sabha,27.0377,14.4283,24.56,14,7,4.01,LY,1619583406
643,232571,Kalangala,-0.3089,32.225,23.43,68,39,5.7,UG,1619583407
644,553416,Kamenskiy,50.8855,45.488,5.94,69,94,2.58,RU,1619583407
645,4032243,Vaini,-21.2,-175.2,22.0,94,90,5.14,TO,1619583407
646,2342490,Funtua,11.5233,7.3081,25.34,51,79,3.82,NG,1619583408
647,1006984,East London,-33.0153,27.9116,14.0,77,0,1.54,ZA,1619583408
648,4726521,San Patricio,28.017,-97.5169,26.0,89,90,6.69,US,1619583409
649,1712961,Gigmoto,13.7796,124.39,29.1,59,74,2.95,PH,1619583409
650,2630299,Hofn,64.2539,-15.2082,4.35,62,4,7.31,IS,1619583409
651,1649150,Bengkulu,-3.8004,102.2655,29.54,66,59,2.1,ID,1619583280
652,2180815,Tuatapere,-46.1333,167.6833,13.33,80,90,5.36,NZ,1619583410
653,3985710,Cabo San Lucas,22.8909,-109.9124,21.11,79,23,6.74,MX,1619583410
654,5880054,Barrow,71.2906,-156.7887,-7.0,86,90,1.54,US,1619583411
655,2067089,Maningrida,-12.0667,134.2667,29.43,69,60,5.21,AU,1619583411
656,5282297,Bethel,41.3712,-73.414,11.67,54,1,1.26,US,1619583411
657,1517060,Zaysan,47.4667,84.8667,17.68,32,45,2.39,KZ,1619583412
658,1633419,Padang,-0.9492,100.3543,29.0,79,20,2.57,ID,1619583412
659,1064275,Ihosy,-22.4,46.1167,18.26,92,90,2.18,MG,1619583413
660,4160812,Key West,24.5557,-81.7826,26.0,65,90,4.12,US,1619583413
661,1516048,Khovd,48.0056,91.6419,14.45,21,99,1.71,MN,1619583414
662,1490256,Talnakh,69.4865,88.3972,-0.85,79,100,5.31,RU,1619583414
663,2155415,New Norfolk,-42.7826,147.0587,18.89,72,98,2.24,AU,1619583414
664,2156643,Mount Gambier,-37.8333,140.7667,17.0,59,90,2.06,AU,1619583415
665,6170031,Tuktoyaktuk,69.4541,-133.0374,-10.0,73,20,6.17,CA,1619583415
666,792945,Banatski Karlovac,45.0472,21.0161,12.22,71,90,9.77,RS,1619583415
667,3874787,Punta Arenas,-53.15,-70.9167,4.0,93,40,4.12,CL,1619583281
668,2123979,Kuril'sk,45.2333,147.8833,3.42,52,70,1.25,RU,1619583416
669,616944,Aragats,40.4889,44.3528,14.0,72,88,0.51,AM,1619583416
670,2194098,Ahipara,-35.1667,173.1667,16.84,57,14,4.86,NZ,1619583417
671,6089245,Norman Wells,65.282,-126.8329,-2.0,31,75,3.09,CA,1619583429
672,5364271,Laguna,38.421,-121.4238,22.0,30,1,1.54,US,1619583429
673,2514651,Los Llanos de Aridane,28.6585,-17.9182,17.0,67,0,3.6,ES,1619583430
674,1259385,Port Blair,11.6667,92.75,31.0,74,40,2.57,IN,1619583430
675,777019,Vardø,70.3705,31.1107,-3.0,68,75,7.2,NO,1619583431
676,2015352,Terney,45.0503,136.6092,5.38,97,100,2.01,RU,1619583431
677,5838199,Sheridan,44.8333,-106.9173,7.22,75,1,1.54,US,1619583431
678,5870133,Nome,64.5011,-165.4064,2.22,86,1,2.57,US,1619583187
679,2447513,Arlit,18.7369,7.3853,29.68,10,0,4.02,NE,1619583432
680,986717,Kruisfontein,-34.0033,24.7314,11.67,93,100,0.45,ZA,1619583433
681,5106841,Albany,42.6001,-73.9662,12.78,43,86,0.67,US,1619583305
682,1805733,Jinchang,38.4953,102.1739,14.87,14,4,11.65,CN,1619583433
683,3369157,Cape Town,-33.9258,18.4232,14.44,94,0,3.09,ZA,1619582811
684,2632287,Dalvik,65.9702,-18.5286,3.0,87,90,4.12,IS,1619583434
685,2446796,Bilma,18.6853,12.9164,28.58,12,0,3.39,NE,1619583434
686,1282256,Hithadhoo,-0.6,73.0833,28.04,66,97,0.27,MV,1619583434
687,2509769,Vélez-Málaga,36.7726,-4.1005,15.56,76,66,2.44,ES,1619583435
688,2088659,Panguna,-6.3164,155.4848,24.69,77,89,2.17,PG,1619583435
689,933995,Souillac,-20.5167,57.5167,24.0,94,75,4.63,MU,1619583436
690,6185377,Yellowknife,62.456,-114.3525,-7.0,53,90,6.69,CA,1619583172
691,5546220,Saint George,37.1041,-113.5841,15.56,36,1,6.69,US,1619583436
692,3652764,Puerto Ayora,-0.7393,-90.3518,23.9,91,33,3.26,EC,1619583437
693,2264557,Ponta do Sol,32.6667,-17.1,15.0,82,100,0.89,PT,1619583437
694,584717,Xaçmaz,41.4635,48.806,12.11,73,100,1.68,AZ,1619583438
695,4035715,Avarua,-21.2078,-159.775,27.0,83,91,3.09,CK,1619583438
696,2017155,Saskylakh,71.9167,114.0833,0.2,84,100,4.4,RU,1619583438
697,2126123,Chokurdakh,70.6333,147.9167,-1.05,96,100,3.35,RU,1619583439
698,1507390,Dikson,73.5069,80.5464,0.38,88,100,8.59,RU,1619583439
699,368246,Raja,8.4596,25.678,26.16,50,74,0.83,SS,1619583440
700,1791779,Wanning,18.8003,110.3967,27.79,76,54,2.35,CN,1619583440
701,751335,Bafra,41.5678,35.9069,15.0,87,0,1.03,TR,1619583441
702,1283285,Jumla,29.2747,82.1838,18.98,30,6,1.83,NP,1619583441
703,1218612,Murgab,37.4966,61.9714,22.0,43,10,6.17,TM,1619583441
704,2126199,Cherskiy,68.75,161.3,-0.79,80,98,6.06,RU,1619583442
705,3489440,Morant Bay,17.8815,-76.4093,27.0,61,20,3.6,JM,1619583442
706,2015179,Tommot,58.9564,126.2925,-1.97,87,100,3.22,RU,1619583442
707,1651810,Airai,-8.9266,125.4092,24.43,35,8,0.91,TL,1619583443
708,219414,Basoko,1.2391,23.616,21.43,95,100,1.25,CD,1619583443
709,1819729,Hong Kong,22.2855,114.1577,28.33,83,94,2.67,HK,1619583184
710,2036403,Jiupu,41.0667,122.95,18.19,17,2,7.63,CN,1619583444
711,3421765,Nanortalik,60.1432,-45.2371,1.15,90,31,2.91,GL,1619583444
712,3385106,Viçosa do Ceará,-3.5622,-41.0922,18.92,95,34,0.18,BR,1619583445
713,934322,Mahébourg,-20.4081,57.7,24.0,94,75,4.63,MU,1619583445
714,2160735,Lakes Entrance,-37.8811,147.981,17.22,68,27,1.34,AU,1619583445
715,2122493,Omsukchan,62.5333,155.8,-1.08,71,0,1.92,RU,1619583446
716,5134295,Rome,43.2128,-75.4557,13.0,62,90,4.63,US,1619583227
717,3836669,San Rafael,-34.6177,-68.3301,16.78,58,0,3.8,AR,1619583446
718,3408269,Afuá,-0.1567,-50.3867,23.86,95,100,1.92,BR,1619583447
719,286621,Salalah,17.0151,54.0924,29.0,70,40,1.54,OM,1619583044
720,3988392,Rosarito,32.3333,-117.0333,15.0,67,20,2.57,MX,1619583447
721,1214965,Kabanjahe,3.1001,98.4908,31.0,66,40,2.06,ID,1619583448
722,3831208,Qaanaaq,77.484,-69.3632,-0.76,91,100,2.59,GL,1619583448
723,1054463,Tsiroanomandidy,-18.7667,46.0333,17.8,92,0,1.14,MG,1619583449
724,3401845,Conceição do Araguaia,-8.2578,-49.2647,24.0,94,0,1.54,BR,1619583449
725,3382160,Cayenne,4.9333,-52.3333,22.78,100,75,1.54,GF,1619583449
726,2392308,Ouidah,6.3631,2.0851,29.0,84,40,3.09,BJ,1619583450
727,3533107,Álamo,20.9167,-97.6833,24.38,90,70,2.57,MX,1619583450
728,286245,Sur,22.5667,59.5289,33.39,28,97,3.62,OM,1619583450
729,1259784,Phek,25.6667,94.5,27.54,25,32,0.32,IN,1619583451
730,3459867,Joaíma,-16.6542,-41.0306,20.0,82,12,0.74,BR,1619583451
731,3430708,Mercedes,-34.6515,-59.4307,13.33,85,3,0.89,AR,1619583452
732,2139521,Noumea,-22.2763,166.4572,25.0,57,20,6.69,NC,1619583159
733,3374210,São Filipe,14.8961,-24.4956,22.11,76,48,3.87,CV,1619583452
734,3893629,Coquimbo,-29.9533,-71.3436,12.0,87,0,2.06,CL,1619583196
735,3355672,Lüderitz,-26.6481,15.1594,14.4,82,8,3.86,NA,1619583453
736,610864,Khani,41.9563,42.9566,10.0,100,90,1.54,GE,1619583454
737,3393692,Itarema,-2.9248,-39.9167,24.45,87,90,3.9,BR,1619583454
738,216404,Gbadolite,4.2833,21.0167,20.85,95,100,0.69,CD,1619583454
739,5866063,Kenai,60.5544,-151.2583,9.0,61,1,4.63,US,1619583455
740,4642938,Morristown,36.214,-83.2949,22.0,56,20,4.12,US,1619583455
741,2727234,Åkersberga,59.4794,18.2997,-1.11,86,40,0.51,SE,1619583455
742,1162316,Yazman,29.1212,71.7446,38.18,12,34,7.8,PK,1619583456
743,5671996,Polson,47.6936,-114.1632,9.44,55,99,1.31,US,1619583456
744,2015306,Tiksi,71.6872,128.8694,-7.15,81,100,6.76,RU,1619583456
745,3430863,Mar del Plata,-38.0023,-57.5575,14.44,93,0,2.57,AR,1619583300
746,1065158,Farafangana,-22.8167,47.8333,22.07,89,8,1.15,MG,1619583457
747,5848280,Kapaa,22.0752,-159.319,23.33,78,75,1.69,US,1619583346
748,2815824,Vreden,52.0379,6.828,5.0,56,5,0.89,DE,1619583458
749,1106677,Bambous Virieux,-20.3428,57.7575,24.0,94,75,4.63,MU,1619583458
750,2686469,Örnsköldsvik,63.2909,18.7153,0.0,86,75,2.57,SE,1619583458
751,686090,Asău,46.4333,26.4,5.0,87,90,1.54,RO,1619583459
752,2126710,Beringovskiy,63.05,179.3167,0.98,90,99,3.51,RU,1619583459
753,6167817,Torbay,47.6666,-52.7314,5.0,93,90,3.09,CA,1619583459
754,2159220,Mackay,-21.15,149.2,25.0,78,90,7.72,AU,1619583460
755,3393536,Olinda,-8.0089,-34.8553,24.0,88,75,1.03,BR,1619583460
756,2220853,Yokadouma,3.5167,15.05,20.44,98,100,0.31,CM,1619583461
757,3645532,Ciudad Bolivar,8.1222,-63.5497,27.24,66,90,4.29,VE,1619583461
758,1515029,Ulaangom,49.9811,92.0667,11.42,33,100,1.67,MN,1619583461
759,4593142,Rock Hill,34.9249,-81.0251,18.89,82,1,2.57,US,1619583462
760,3430545,Morón,-34.6534,-58.6198,16.67,91,0,1.84,AR,1619583462
761,6113406,Prince Rupert,54.3161,-130.3201,9.0,81,90,7.72,CA,1619583462
762,2122090,Pevek,69.7008,170.3133,-3.81,82,100,3.96,RU,1619583463
763,1505991,Igarka,67.4667,86.5833,0.67,98,100,8.62,RU,1619583463
764,3346015,Sumbe,-11.2061,13.8437,25.9,86,40,1.17,AO,1619583463
765,638936,Rovaniemi,66.5,25.7167,-4.0,80,0,4.12,FI,1619583464
766,5882953,Aklavik,68.2191,-135.0107,-2.0,34,6,1.54,CA,1619583464
767,2077895,Alice Springs,-23.7,133.8833,24.0,23,0,5.14,AU,1619583324
768,886990,Marondera,-18.1853,31.5519,13.75,75,87,1.59,ZW,1619583465
769,2170577,Cooma,-36.2333,149.1333,18.0,42,60,0.51,AU,1619583465
770,2112802,Hasaki,35.7333,140.8333,22.22,52,75,6.69,JP,1619583466
771,4513583,Hamilton,39.1834,-84.5333,22.22,40,90,4.63,US,1619583356
772,964432,Port Alfred,-33.5906,26.891,18.05,75,100,2.85,ZA,1619583467
773,2028164,Deputatsky,69.3,139.9,-7.01,83,99,2.02,RU,1619583467
774,3654410,Manta,-0.95,-80.7333,24.0,83,75,4.12,EC,1619583467
775,293842,Kiryat Gat,31.61,34.7642,15.56,81,0,0.58,IL,1619583468
776,3451138,Rio Grande,-32.035,-52.0986,8.33,97,18,4.52,BR,1619583468
777,3932145,Pisco,-13.7,-76.2167,19.0,88,75,1.03,PE,1619583468
778,3038789,Abbeville,50.1,1.8333,6.67,84,95,1.35,FR,1619583469
779,2729907,Longyearbyen,78.2186,15.6401,-9.0,67,40,3.09,SJ,1619583469
780,2522325,Agüimes,27.9054,-15.4461,18.89,67,40,2.06,ES,1619583470
781,662920,Viişoara,46.55,23.9167,6.11,93,90,5.14,RO,1619583470
782,5563839,Fortuna,40.5982,-124.1573,10.0,100,1,5.14,US,1619583470
783,3664716,Canutama,-6.5339,-64.3831,22.5,99,99,0.95,BR,1619583471
784,3366880,Hermanus,-34.4187,19.2345,10.56,94,28,0.45,ZA,1619583471
785,2112309,Katsuura,35.1333,140.3,22.0,53,75,9.26,JP,1619583472
786,2455290,Kidal,18.4411,1.4078,30.35,16,71,1.44,ML,1619583472
787,1015776,Bredasdorp,-34.5322,20.0403,8.0,87,71,0.51,ZA,1619583473
788,3418910,Upernavik,72.7868,-56.1549,-4.17,89,98,3.41,GL,1619583473
789,653272,Kemijärvi,66.7131,27.4306,-4.31,87,86,1.99,FI,1619583474
790,4031574,Provideniya,64.3833,-173.3,1.0,80,0,3.78,RU,1619583474
791,1735106,George Town,5.4112,100.3354,31.0,70,20,3.09,MY,1619583474
792,778707,Mehamn,71.0357,27.8492,-3.0,68,75,9.26,NO,1619583475
793,3628473,San Cristobal,7.7669,-72.225,19.14,96,98,0.82,VE,1619583475
794,2167426,Emerald,-23.5333,148.1667,27.78,26,0,3.09,AU,1619583476
795,3373652,Oistins,13.0667,-59.5333,26.0,69,40,5.66,BB,1619583253
796,1254163,Trivandrum,8.4833,76.9167,32.0,62,20,3.6,IN,1619583477
797,1648759,Bima,-8.4667,118.7167,31.6,52,21,0.35,ID,1619583478
798,5469841,Grants,35.1473,-107.8514,2.0,80,40,2.06,US,1619583378
799,934479,Grand Gaube,-20.0064,57.6608,23.89,92,100,2.68,MU,1619583478
800,3423146,Ilulissat,69.2167,-51.1,1.0,75,83,1.54,GL,1619583479
801,5554428,Ketchikan,55.3422,-131.6461,8.0,100,90,7.2,US,1619583341
802,2208248,Kaitangata,-46.2817,169.8464,10.86,73,89,3.81,NZ,1619583479
803,3855065,General Roca,-39.0333,-67.5833,11.0,93,0,1.03,AR,1619583480
804,3939168,Huarmey,-10.0681,-78.1522,19.22,90,93,2.96,PE,1619583480
805,3372783,Ponta Delgada,37.7333,-25.6667,15.0,82,75,4.63,PT,1619583480
806,1151073,Prachuap Khiri Khan,12.2167,99.75,32.78,55,100,1.06,TH,1619583464
807,1518139,Tobol,52.6844,62.5794,7.72,70,71,4.42,KZ,1619583481
808,4034551,Faanui,-16.4833,-151.75,27.65,72,60,5.33,PF,1619583481
809,3530103,San Miguel de Cozumel,20.5083,-86.9458,27.0,83,75,5.14,MX,1619583482
810,905846,Mpika,-11.8343,31.4529,15.08,97,23,2.52,ZM,1619583482
811,7117100,Vila,42.0304,-8.1588,11.11,95,55,1.79,PT,1619583482
812,3899695,Ancud,-41.8697,-73.8203,12.22,100,20,1.03,CL,1619583483
813,6164831,Thessalon,46.2501,-83.5666,7.0,76,90,2.17,CA,1619583483
814,1072879,Ankazoabo,-22.2833,44.5167,20.23,81,0,1.26,MG,1619583431
815,304183,Bayir,37.2687,28.2167,10.0,87,0,2.06,TR,1619583484
816,2068110,Kununurra,-15.7667,128.7333,35.0,49,40,3.6,AU,1619583484
817,732825,Buhovo,42.7667,23.5667,11.67,87,40,2.06,BG,1619583485
818,6533368,Moranbah,-22.0016,148.0466,26.25,37,3,6.38,AU,1619583485
819,2090021,Namatanai,-3.6667,152.4333,29.01,71,41,3.57,PG,1619583485
820,141736,Bam,29.106,58.357,28.38,16,1,0.88,IR,1619583486
821,6165406,Thompson,55.7435,-97.8558,-8.0,57,75,1.54,CA,1619583486
822,2398269,Moanda,-1.5575,13.2178,21.22,97,100,1.08,GA,1619583487
823,5924351,Clyde River,70.4692,-68.5914,-10.0,73,1,3.09,CA,1619583487
824,3994535,Ocampo,21.65,-101.5,19.36,24,62,4.13,MX,1619583487
825,2122783,Katangli,51.7102,143.2326,1.87,74,100,7.47,RU,1619583488
826,161901,Kaka,37.3482,59.6143,25.71,35,13,4.04,TM,1619583488
827,2189343,Kaeo,-35.1,173.7833,17.22,62,82,2.24,NZ,1619583488
828,3839479,Rafaela,-31.2503,-61.4867,13.89,57,0,0.45,AR,1619583489
829,2016307,Solnechnyy,50.7214,136.6319,12.67,52,100,2.17,RU,1619583489
830,1282898,Pokhara,28.2333,83.9833,32.38,11,0,3.15,NP,1619582944
831,2629833,Husavik,66.0449,-17.3389,3.0,87,90,4.12,IS,1619583490
832,2392087,Porto-Novo,6.4965,2.6036,29.0,84,40,3.09,BJ,1619583490
833,1500485,Listvyagi,53.6772,86.951,9.53,95,100,4.23,RU,1619583490
834,362973,Abnūb,27.2696,31.1511,15.0,67,0,3.6,EG,1619583491
835,2022572,Khatanga,71.9667,102.5,-0.36,83,84,2.79,RU,1619583463
836,2396518,Port-Gentil,-0.7193,8.7815,27.53,79,100,2.02,GA,1619583491
837,1486321,Yar-Sale,66.8333,70.8333,-0.38,96,100,3.87,RU,1619583492
838,1733782,Labuan,5.2767,115.2417,30.0,79,40,1.03,MY,1619583492
839,3419842,Sisimiut,66.9395,-53.6735,-0.39,91,22,1.84,GL,1619583492
840,964712,Plettenberg Bay,-34.0527,23.3716,14.79,86,100,1.0,ZA,1619583493
841,1715015,Dicabisagan,17.0818,122.4157,27.48,63,76,2.85,PH,1619583493
842,672364,Negri,46.7,26.9667,5.0,87,90,1.54,RO,1619583493
843,2094342,Kavieng,-2.5744,150.7967,28.95,70,27,3.53,PG,1619583494
844,3372472,Vila Franca do Campo,37.7167,-25.4333,15.0,82,75,4.63,PT,1619583494
845,5338122,Clovis,36.8252,-119.7029,19.0,37,20,1.54,US,1619583453
846,2020838,Lensk,60.7253,114.9278,-0.78,63,93,1.39,RU,1619583495
847,2281120,Tabou,4.423,-7.3528,26.07,88,100,3.26,CI,1619583495
848,3407903,Almeirim,-1.5233,-52.5817,22.55,97,100,1.26,BR,1619583496
849,6137462,Saint-Augustin,51.226,-58.6502,2.43,99,100,0.67,CA,1619583496
850,1855540,Naze,28.3667,129.4833,24.0,69,75,5.14,JP,1619583263
851,4740364,Weatherford,32.7593,-97.7972,23.33,87,66,0.89,US,1619583372
852,1266668,Khonsa,27.0167,95.5667,30.43,23,23,2.36,IN,1619583497
853,3996426,Matamoros,25.5333,-103.25,28.89,29,99,3.58,MX,1619583445
854,964420,Port Elizabeth,-33.918,25.5701,16.0,88,75,1.54,ZA,1619583497
855,2122104,Petropavlovsk-Kamchatskiy,53.0452,158.6483,8.0,66,40,5.0,RU,1619583498
856,933677,Kasane,-17.8167,25.15,19.0,94,0,1.03,BW,1619583499
857,1520172,Petropavl,54.8753,69.1628,11.0,82,20,4.0,KZ,1619583499
858,3424607,Tasiilaq,65.6145,-37.6368,0.0,86,99,1.03,GL,1619583499
859,2171722,Charters Towers,-20.1,146.2667,24.7,49,63,4.63,AU,1619583500
860,5905393,Bonavista,48.6499,-53.1147,2.22,100,100,0.51,CA,1619583500
861,161974,Bereket,39.2446,55.5154,20.36,56,100,3.21,TM,1619583500
862,2038529,Baishishan,43.5833,127.5667,11.27,37,51,6.79,CN,1619583501
863,1526041,Atasū,48.6814,71.6433,21.85,25,32,7.1,KZ,1619583501
864,2017215,Sangar,63.9242,127.4739,-3.41,77,68,5.13,RU,1619583501
865,553350,Kamskiye Polyany,55.4307,51.4171,5.0,75,0,6.0,RU,1619583502
866,5895424,Bay Roberts,47.5999,-53.2648,5.0,94,100,2.5,CA,1619583502
867,3361142,Springbok,-29.6643,17.8865,12.0,50,22,1.55,ZA,1619583503
868,3887127,Iquique,-20.2208,-70.1431,19.0,59,0,3.6,CL,1619583504
869,2191562,Dunedin,-45.8742,170.5036,11.91,63,100,3.93,NZ,1619583469
870,3450188,Santa Isabel,-23.3156,-46.2214,17.0,100,40,2.06,BR,1619583504
871,2027296,Aykhal,66.0,111.5,-1.94,86,31,5.65,RU,1619583505
872,4021858,Guerrero Negro,27.9769,-114.0611,14.91,76,0,6.99,MX,1619583505
873,2101169,Aitape,-3.1374,142.3475,30.08,64,16,2.81,PG,1619583506
874,1244926,Hambantota,6.1241,81.1185,30.0,84,20,2.57,LK,1619583506
875,3452327,Presidente Olegário,-18.4178,-46.4181,15.56,100,4,1.55,BR,1619583506
876,537935,Kuzhenkino,57.7611,33.9508,0.67,91,100,3.0,RU,1619583507
877,2013258,Vrangel',42.7297,133.0839,8.16,88,87,3.86,RU,1619583507
878,5866583,Saint Paul Harbor,57.79,-152.4072,5.21,94,97,5.53,US,1619583507
879,3526756,Isla Mujeres,21.2311,-86.731,27.22,83,75,5.14,MX,1619583508
880,3361934,Saldanha,-33.0117,17.9442,13.0,88,41,2.06,ZA,1619583508
881,1791636,Weinan,34.5036,109.5089,22.0,30,0,7.0,CN,1619583508
882,361058,Alexandria,31.2156,29.9553,13.0,94,1,1.03,EG,1619583509
883,2145554,Ulladulla,-35.35,150.4667,21.0,60,40,5.14,AU,1619583509
884,2122605,Okhotsk,59.3833,143.3,0.39,74,100,1.57,RU,1619583510
885,5975004,High Level,58.5169,-117.136,-6.0,49,20,1.03,CA,1619583510
886,1856068,Nago,26.5881,127.9761,26.0,61,40,4.12,JP,1619583511
887,152877,Mtambile,-5.3833,39.7,25.98,83,84,3.32,TZ,1619583511
888,6067747,Matagami,49.7502,-77.6328,3.0,48,1,1.75,CA,1619583511
889,2210554,Sirte,31.2089,16.5887,26.64,23,95,8.94,LY,1619583512
890,1316703,Kyaukse,21.6,96.1333,32.0,55,20,3.6,MM,1619583512
891,1630789,Pontianak,-0.0333,109.3333,30.0,74,75,4.12,ID,1619583512
892,2136825,Isangel,-19.55,169.2667,27.0,65,40,5.14,VU,1619583402
893,673652,Măxineni,45.4,27.6333,5.77,86,100,4.04,RO,1619583513
894,3382226,Camopi,3.1655,-52.3158,21.62,99,95,0.91,GF,1619583513
895,1650527,Balikpapan,-1.2675,116.8289,29.69,64,88,1.36,ID,1619583514
896,1784554,Zhicheng,30.2956,111.5047,25.56,43,100,3.37,CN,1619583514
897,3946820,Barranca,-10.75,-77.7667,18.51,89,98,2.29,PE,1619583514
898,2412408,Nioro,13.35,-15.75,23.74,36,59,3.14,GM,1619583515
899,2088122,Port Moresby,-9.4431,147.1797,25.0,94,90,6.17,PG,1619583515
900,5859699,College,64.8569,-147.8028,9.0,17,75,2.7,US,1619583516
901,5935341,Dauphin,51.1494,-100.0502,0.0,59,1,3.6,CA,1619583516
902,2128025,Shizunai-furukawachō,42.3339,142.3669,10.27,58,100,3.55,JP,1619583516
903,3421193,Paamiut,61.994,-49.6678,2.39,74,36,1.76,GL,1619583517
904,3386213,Touros,-5.1989,-35.4608,24.0,94,40,1.54,BR,1619583517
905,2071860,Esperance,-33.8667,121.9,24.0,46,53,2.57,AU,1619583045
906,2374583,Bubaque,11.2833,-15.8333,25.64,62,100,5.04,GW,1619583518
907,5720495,Coos Bay,43.3665,-124.2179,11.0,82,1,3.6,US,1619583518
908,485660,Tsimmerbude,54.675,20.1347,0.56,100,75,1.0,RU,1619583518
909,2067119,Mandurah,-32.55,115.7,25.0,60,64,1.79,AU,1619583519
910,2303611,Esim,4.8699,-2.2405,26.83,85,100,2.63,GH,1619583519
911,215771,Isiro,2.7739,27.616,18.45,96,100,0.79,CD,1619583519
912,4362001,Mayo,38.8876,-76.5119,21.67,77,1,4.68,US,1619583520
913,2980080,Saint-François,46.4154,3.9054,10.0,87,100,1.54,FR,1619583520
914,5983607,Inuvik,68.3499,-133.7218,-2.0,34,5,1.54,CA,1619583520
915,1847947,Shingū,33.7333,135.9833,16.0,100,75,7.72,JP,1619583521
916,3395981,Maceió,-9.6658,-35.7353,24.0,94,75,2.06,BR,1619583521
917,1694759,Parangan,5.0839,119.9383,28.48,73,58,2.19,PH,1619583522
918,3388847,São Félix do Xingu,-6.6447,-51.995,22.27,99,100,0.9,BR,1619583522
919,7601762,Bairiki Village,1.3292,172.9752,29.0,79,75,3.09,KI,1619583522
920,1623197,Tual,-5.6667,132.75,28.56,63,40,1.65,ID,1619583523
921,3372760,Praia da Vitória,38.7333,-27.0667,15.0,88,75,3.16,PT,1619583523
922,2126682,Bilibino,68.0546,166.4372,-3.77,77,53,1.09,RU,1619583524
923,935214,Saint-Pierre,-21.3393,55.4781,25.0,73,75,2.06,RE,1619583524
924,240210,Birao,10.2849,22.7882,25.69,50,76,1.21,CF,1619583524
925,3984997,San Quintín,30.4833,-115.95,13.0,71,7,5.91,MX,1619583525
926,371745,Kutum,14.2,24.6667,21.07,18,55,3.49,SD,1619583525
927,1067565,Beloha,-25.1667,45.05,21.74,63,0,2.4,MG,1619583526
928,2451184,Sikasso,10.9167,-7.0,26.74,57,100,2.88,ML,1619583526
929,156111,Kyela,-9.5833,33.85,21.16,89,62,0.76,TZ,1619583526
930,6949678,Taitung City,22.7583,121.1444,27.0,61,40,3.6,TW,1619583527
931,1511783,Aleysk,52.4926,82.7822,16.56,39,100,10.41,RU,1619583527
932,5921357,Chilliwack,49.1747,-121.9443,12.0,71,100,1.03,CA,1619583528
933,3381538,Grand-Santi,4.25,-54.3833,21.43,98,100,0.88,GF,1619583528
934,3380290,Sinnamary,5.3833,-52.95,24.0,90,96,1.28,GF,1619583528
935,3933874,Oxapampa,-10.5775,-75.4017,14.61,99,99,0.21,PE,1619583529
936,315202,Eskişehir,39.7767,30.5206,6.0,93,0,0.51,TR,1619583276
937,3685702,Cravo Norte,6.3017,-70.2041,24.38,90,100,2.57,CO,1619583529
938,1516589,Zhezkazgan,47.8043,67.7144,21.38,25,81,2.89,KZ,1619583530
939,2637487,Southampton,50.904,-1.4043,7.22,63,98,0.45,GB,1619583530
940,1863997,Fukuechō,32.6881,128.8419,18.0,100,75,3.6,JP,1619583531
941,2646557,Horsham,51.064,-0.3272,6.11,75,0,2.57,GB,1619583531
942,2015913,Suntar,62.1444,117.6319,0.06,51,77,1.78,RU,1619583531
943,2026786,Berezovyy,51.6667,135.7,7.07,86,100,3.07,RU,1619583532
944,2656708,Ayr,55.4627,-4.6339,1.67,93,20,1.03,GB,1619583532
945,3948613,Acarí,-15.4311,-74.6158,20.71,80,92,1.5,PE,1619583532
946,88319,Benghazi,32.1167,20.0667,23.39,31,65,8.22,LY,1619583533
947,3883457,Lebu,-37.6167,-73.65,12.52,93,61,0.95,CL,1619583533
948,1493162,Salym,60.0625,71.4789,7.66,59,100,2.09,RU,1619583534
949,2138555,Poum,-20.2333,164.0167,24.86,59,3,9.62,NC,1619583534
950,1337610,Thinadhoo,0.5333,72.9333,28.01,65,97,1.49,MV,1619583534
951,292968,Abu Dhabi,24.4667,54.3667,33.0,27,20,1.54,AE,1619583326
952,3174050,Province of Mantua,45.1667,10.7833,10.56,94,94,0.45,IT,1619583535
953,6255012,Flinders,-34.5833,150.8552,23.33,65,81,1.34,AU,1619583536
954,3466165,Cidreira,-30.1811,-50.2056,14.31,81,4,3.66,BR,1619583541
955,3939761,Hualmay,-11.0964,-77.6139,18.71,90,99,3.58,PE,1619583541
956,5712169,Baker City,44.7749,-117.8344,9.0,61,1,1.54,US,1619583542
957,3680090,Juradó,7.1053,-77.7641,24.34,90,89,1.49,CO,1619583542
958,554894,Izberbash,42.5696,47.8645,12.0,87,75,0.15,RU,1619583542
959,3347019,Mossamedes,-15.1961,12.1522,24.14,70,61,3.98,AO,1619583543
960,1735902,Sibu,2.3,111.8167,32.0,66,40,1.54,MY,1619583396
961,2181625,Te Anau,-45.4167,167.7167,8.41,88,100,0.83,NZ,1619583544
962,1798946,Pengcheng,36.4311,114.17,23.17,9,51,5.8,CN,1619583544
963,2119283,Zyryanka,65.75,150.85,0.09,90,79,5.62,RU,1619583545
964,1701054,Marawi,7.9986,124.2928,28.89,77,76,4.02,PH,1619583545
965,556268,Ostrovnoy,68.0531,39.5131,-4.33,84,100,3.21,RU,1619583546
966,3412093,Vestmannaeyjar,63.4427,-20.2734,6.17,78,4,8.28,IS,1619583547
967,3648546,Barinas,8.6226,-70.2075,24.0,100,100,1.03,VE,1619583548
968,1035025,Nacala,-14.5428,40.6728,23.2,96,22,2.39,MZ,1619583548
969,1131461,Oruzgan,32.8333,66.0,23.57,16,23,0.65,AF,1619583549
970,2094027,Kieta,-6.2167,155.6333,29.28,68,70,1.18,PG,1619583550
971,4012344,Cuencamé de Ceniceros,24.8711,-103.6964,22.03,36,92,8.22,MX,1619583550
972,777682,Skjervøy,70.0311,20.9714,0.0,69,75,5.14,NO,1619583550
973,3372964,Lagoa,39.05,-27.9833,15.22,77,100,4.46,PT,1619583551
974,3445026,Vila Velha,-20.3297,-40.2925,23.0,94,0,2.48,BR,1619583551
975,5970478,Harbour Breton,47.4833,-55.7983,4.04,90,63,5.71,CA,1619583551
976,113659,Tabas,33.5959,56.9244,28.68,22,98,0.86,IR,1619583552
977,64013,Bosaso,11.2842,49.1816,29.85,63,77,3.29,SO,1619583552
978,5606401,Sandpoint,48.2766,-116.5533,10.0,50,1,1.14,US,1619583485
979,462626,Zilair,52.2332,57.4392,4.68,82,95,2.81,RU,1619583553
980,5000500,Madison Heights,42.4859,-83.1052,24.0,43,40,2.57,US,1619583553
981,3833112,Veinticinco de Mayo,-35.4323,-60.1727,10.0,91,1,0.45,AR,1619583554
982,3405051,Borba,-4.3878,-59.5939,22.75,98,99,0.6,BR,1619583554
983,3466980,Caravelas,-17.7125,-39.2481,22.81,82,52,2.27,BR,1619583554
984,2294915,Takoradze,4.8845,-1.7554,27.3,84,93,3.04,GH,1619583555
985,108410,Riyadh,24.6877,46.7219,29.0,23,0,4.63,SA,1619583555
986,2738381,Lata,40.1629,-8.3327,14.44,88,58,1.35,PT,1619583555
987,3843123,Neuquén,-38.9516,-68.0591,11.0,93,0,1.03,AR,1619583334
988,2377450,Nouakchott,18.0858,-15.9785,20.0,77,0,7.2,MR,1619583357
989,3430443,Necochea,-38.5473,-58.7368,13.89,84,0,1.79,AR,1619583556
990,569681,Chebsara,59.2002,38.8356,2.0,93,90,2.0,RU,1619583556
991,1494523,Polovinnoye,54.7914,65.9864,7.79,73,100,4.25,RU,1619583557
992,3670745,Riohacha,11.5444,-72.9072,25.65,78,96,4.84,CO,1619583551
993,4063619,Gadsden,34.0143,-86.0066,17.78,100,1,1.51,US,1619583374
994,895061,Bindura,-17.3019,31.3306,15.0,86,12,2.24,ZW,1619583558
995,1525376,Bestöbe,52.4994,73.0975,17.51,61,100,10.52,KZ,1619583558
996,1856392,Muroto-misakicho,33.2833,134.15,18.0,94,75,4.12,JP,1619583558
997,1495586,Parabel',58.6978,81.4825,9.51,76,100,1.32,RU,1619583559
998,2122262,Palana,59.1167,159.9667,-1.52,87,100,4.75,RU,1619583559
999,2521804,Altea,38.5989,-0.0514,14.44,91,8,1.1,ES,1619583560
1000,2126785,Belaya Gora,68.5333,146.4167,-0.93,97,100,1.23,RU,1619583560
1001,2219235,Ubari,26.5921,12.7805,27.69,20,68,6.09,LY,1619583560
1002,4328010,Houma,29.5958,-90.7195,25.0,88,90,3.09,US,1619583561
1003,2121373,Seymchan,62.8833,152.4333,-2.38,86,27,1.27,RU,1619583561
1004,2381334,Atar,20.5169,-13.0499,24.74,28,76,2.79,MR,1619583561
1005,6067472,Marystown,47.1666,-55.1483,3.99,91,47,4.05,CA,1619583562
1006,1492607,Severnoye,56.3491,78.3619,6.74,92,100,3.54,RU,1619583562
1007,2110560,Yamada,39.4667,141.95,18.46,50,99,3.81,JP,1619583562
1008,1267390,Kavaratti,10.5669,72.642,28.94,73,7,2.21,IN,1619583563
1009,2121385,Severo-Kuril'sk,50.6789,156.125,1.29,94,100,7.17,RU,1619583563
1010,1705441,Lubao,14.9167,120.55,34.0,52,75,2.06,PH,1619583564
1011,2092164,Lorengau,-2.0226,147.2712,29.97,66,14,3.57,PG,1619583564
1012,1278987,Allāpalli,19.4167,80.0667,38.63,15,16,0.77,IN,1619583564
1013,2127202,Anadyr,64.75,177.4833,0.0,80,20,5.0,RU,1619583565
1014,2527087,Tiznit Province,29.5833,-9.5,13.14,84,50,1.84,MA,1619583565
1015,4720067,Lavaca,28.615,-96.6261,25.0,88,90,4.63,US,1619583565
1016,1529376,Korla,41.7597,86.1469,20.24,22,27,4.4,CN,1619583566
1017,3460355,Jaciara,-15.9653,-54.9683,22.17,67,88,1.08,BR,1619583566
1018,1168312,Pasni,25.2631,63.471,27.99,74,28,0.95,PK,1619583566
1019,448149,Sinjār,36.3209,41.8754,18.5,55,0,1.61,IQ,1619583567
1020,2377457,Nouadhibou,20.931,-17.0347,18.0,94,0,5.14,MR,1619583567
1021,2173323,Bundaberg,-24.85,152.35,26.0,50,75,6.69,AU,1619583567
1022,3671450,Inírida,3.8653,-67.9239,22.73,98,100,0.93,CO,1619583568
1023,72181,Marzuq,14.4,46.4667,21.98,70,72,1.4,YE,1619583568
1024,702337,Makariv,50.4641,29.8113,1.0,80,1,1.0,UA,1619583569
1025,1485724,Yurga,55.7231,84.8861,8.0,96,100,4.24,RU,1619583569
1026,3533462,Acapulco de Juárez,16.8634,-99.8901,26.41,72,0,1.63,MX,1619583307
1027,1508427,Charyshskoye,51.3978,83.5598,15.58,57,100,4.12,RU,1619583569
1028,4033557,Tautira,-17.7333,-149.15,28.89,74,40,2.57,PF,1619583570
1029,5038045,Monticello,45.3055,-93.7941,6.11,93,100,2.06,US,1619583570
1030,1738050,Marabu,4.4148,114.0089,31.0,70,40,3.09,MY,1619583571
1031,569223,Cherepovets,59.1333,37.9,2.0,93,90,2.0,RU,1619583571
1032,5411479,Alamosa,37.4695,-105.87,2.0,48,1,2.57,US,1619583572
1033,350203,Rosetta,31.4044,30.4164,13.0,94,0,1.03,EG,1619583572
1034,4791259,Virginia Beach,36.8529,-75.978,21.11,69,76,1.34,US,1619582901
1035,1265053,Lar,26.2039,83.9717,38.57,5,0,0.77,IN,1619583573
1036,2027044,Batagay,67.6333,134.6333,-4.41,81,100,2.21,RU,1619583573
1037,962367,Richards Bay,-28.783,32.0377,21.2,88,95,3.65,ZA,1619583574
1038,6160362,Swan River,52.1058,-101.2676,-1.0,51,71,4.63,CA,1619583574
1039,5692947,Williston,48.147,-103.618,13.89,41,51,1.93,US,1619583574
1040,3357804,Eenhana,-17.4667,16.3333,19.0,55,7,2.06,NA,1619583575
1041,2396853,Omboué,-1.5746,9.2618,25.78,92,100,1.91,GA,1619583575
1042,2027244,Bagdarin,54.4333,113.6,-1.65,43,100,3.97,RU,1619583575
1043,1714733,Dingle,10.9995,122.6711,29.54,63,100,4.62,PH,1619583576
1044,3466594,Cavalcante,-13.7975,-47.4583,20.03,80,28,0.57,BR,1619583576
1045,5577158,Fort Morgan,40.2503,-103.8,7.0,93,90,7.2,US,1619583577
1046,6111867,Port Hawkesbury,45.6169,-61.3485,3.0,93,90,5.14,CA,1619583577
1047,1506268,Gornopravdinsk,60.05,69.9,7.79,59,100,2.36,RU,1619583577
1048,3391360,Santana,-0.0583,-51.1817,26.0,94,40,2.06,BR,1619583578
1049,2121909,Poronaysk,49.2167,143.1167,3.76,71,100,4.59,RU,1619583578
1050,1785036,Zhangye,38.9342,100.4517,16.34,11,59,6.76,CN,1619583579
1051,3470871,Barão de Melgaço,-16.1944,-55.9675,23.0,83,0,2.06,BR,1619583579
1052,2381972,Adrar,20.5022,-10.0711,25.36,25,53,4.26,MR,1619583579
1053,2137773,Vao,-22.6667,167.4833,23.22,55,0,7.5,NC,1619583580
1054,2064735,Nhulunbuy,-12.2333,136.7667,27.0,89,40,2.06,AU,1619583580
1055,5267537,Plover,44.4564,-89.544,8.89,100,90,2.06,US,1619583581
1056,3510885,Cabral,18.25,-71.2167,23.44,81,12,1.38,DO,1619583581
1057,1252668,Ziro,27.6333,93.8333,33.0,43,20,1.03,IN,1619583581
1058,915285,Kalengwa,-13.4659,25.0027,16.91,91,80,1.91,ZM,1619583582
1059,2647984,Great Yarmouth,52.6083,1.7305,7.78,87,66,3.09,GB,1619583582
1060,1488903,Turukhansk,65.8167,87.9833,0.68,98,100,8.16,RU,1619583582
1061,3840300,Presidencia Roque Sáenz Peña,-26.7852,-60.4388,12.05,80,0,2.14,AR,1619583583
1062,5557293,Sitka,57.0531,-135.33,7.0,87,90,2.57,US,1619583583
1063,1502073,Krasnosel'kup,65.7,82.4667,0.45,100,100,4.15,RU,1619583583
1064,2179537,Wellington,-41.2866,174.7756,14.0,58,13,4.63,NZ,1619583315
1065,3579925,St. George's,12.0564,-61.7485,27.0,78,20,10.29,GD,1619583584
1066,1176048,Jati,24.3539,68.2671,30.56,49,0,4.91,PK,1619583584
1067,1280037,Shache,38.4167,77.2406,22.48,14,0,4.03,CN,1619583585
1068,2027042,Batagay-Alyta,67.8006,130.4114,-6.71,64,34,1.38,RU,1619583585
1069,3175096,Laas,46.6166,10.7002,10.56,100,75,2.57,IT,1619583586
1070,3868633,Vallenar,-28.5708,-70.7581,14.42,85,36,0.23,CL,1619583586
1071,2021618,Krasnokamensk,50.0979,118.0369,0.73,67,100,6.41,RU,1619583587
1072,2032614,Baruun-Urt,46.6806,113.2792,6.33,22,67,8.35,MN,1619583587
1073,336454,Ginir,7.1333,40.7,15.69,86,76,1.82,ET,1619583588
1074,2562247,Marsaxlokk,35.8419,14.5431,16.0,88,0,4.63,MT,1619583588
1075,1052373,Beira,-19.8436,34.8389,23.0,94,20,2.4,MZ,1619583589
1076,3393922,Nísia Floresta,-6.0911,-35.2086,25.0,88,40,2.57,BR,1619583589
1077,4644312,Murfreesboro,35.8456,-86.3903,22.0,53,40,5.14,US,1619583590
1078,3137469,Sørland,67.667,12.6934,2.89,62,45,5.77,NO,1619583590
1079,1786538,Yining,29.0361,114.5636,18.98,84,100,0.79,CN,1619583590
1080,3981391,Tomatlán,19.9333,-105.25,22.09,82,92,0.85,MX,1619583591
1081,4985180,Bay City,43.5945,-83.8889,11.11,76,40,2.06,US,1619583468
1082,2618795,Klaksvík,62.2266,-6.589,3.0,75,75,5.14,FO,1619583591
1083,3395497,Maracaçumé,-2.0428,-45.9592,22.47,98,36,1.07,BR,1619583592
1084,5563397,Eureka,40.8021,-124.1637,10.0,93,1,2.51,US,1619583364
1085,186180,Moyale,3.5167,39.0584,21.3,70,6,1.35,KE,1619583592
1086,4014336,Chihuahua,28.5,-106.0,24.0,16,40,4.12,MX,1619583361
1087,1626542,Sorong,-0.8833,131.25,28.41,76,67,1.86,ID,1619583593
1088,3893726,Constitución,-35.3333,-72.4167,13.97,63,29,2.98,CL,1619583593
1089,2838053,Schmallenberg,51.15,8.3,0.0,80,0,1.27,DE,1619583593
1090,3145614,Storforshei,66.4043,14.5233,0.56,93,40,0.51,NO,1619583594
1091,1269562,Jagtiāl,18.8,78.9333,36.56,20,1,1.47,IN,1619583594
1092,893485,Chiredzi,-21.05,31.6667,16.52,65,0,0.67,ZW,1619583594
1093,2206089,Sandy Bay,-42.913,147.3532,18.89,48,75,4.63,AU,1619583595
1094,3694112,Paita,-5.0892,-81.1144,21.08,78,94,5.67,PE,1619583595
1095,1795196,Tongchuanshi,35.0806,109.0897,18.85,24,35,8.38,CN,1619583596
1096,780687,Berlevåg,70.8578,29.0864,-3.0,68,75,9.26,NO,1619583596
1097,5478673,Meadow Lake,34.8014,-106.5436,10.56,57,40,7.72,US,1619583597
1098,3421319,Nuuk,64.1835,-51.7216,0.0,93,20,6.69,GL,1619583314
1099,2399371,Makokou,0.5738,12.8642,21.47,98,100,1.77,GA,1619583597
1100,1731248,Alugan,12.2188,125.4808,27.8,70,82,3.77,PH,1619583597
1101,3147441,Lindås,60.7381,5.16,2.78,70,15,2.24,NO,1619583598
1102,3869716,Tocopilla,-22.092,-70.1979,18.77,72,27,1.55,CL,1619583598
1103,1498161,Muzhi,65.3667,64.6667,0.72,86,100,2.69,RU,1619583598
1104,2654970,Brae,60.3964,-1.353,4.0,81,75,5.66,GB,1619583599
1105,102527,Sakakah,29.9697,40.2064,18.0,25,0,1.54,SA,1619583599
1106,1276389,Betūl,21.9153,77.8961,34.38,14,0,3.76,IN,1619583600
1107,457860,Līvāni,56.3543,26.1758,-0.71,94,17,2.08,LV,1619583600
1108,1337607,Kudahuvadhoo,2.6708,72.8944,28.15,72,54,2.18,MV,1619583600
1109,5861897,Fairbanks,64.8378,-147.7164,9.0,17,1,2.57,US,1619583493
1110,3464008,Esmeraldas,-19.7625,-44.3139,19.0,100,75,1.54,BR,1619583601
1111,2269142,Colares,38.7992,-9.4469,15.0,89,23,5.36,PT,1619583601
1112,5484874,Portales,34.1862,-103.3344,19.0,19,20,4.63,US,1619583603
1113,2270385,Camacha,33.0833,-16.3333,17.0,77,40,2.57,PT,1619583603
1114,2171099,Codrington,-38.2667,141.9667,16.57,59,100,2.4,AU,1619583604
1115,3386931,Tamandaré,-8.7597,-35.1047,24.84,88,11,2.19,BR,1619583604
1116,2450849,Sokolo,14.7328,-6.1219,32.52,12,10,1.13,ML,1619583605
1117,110690,Faya,18.3851,42.4509,15.0,67,40,2.06,SA,1619583605
1118,2013921,Ust-Kuyga,70.0167,135.6,-6.72,65,93,0.89,RU,1619583605
1119,53654,Mogadishu,2.0371,45.3438,29.0,65,40,2.57,SO,1619583606
1120,1270343,Hārij,23.7,71.9,33.27,32,72,3.09,IN,1619583606
1121,2123814,Leningradskiy,69.3833,178.4167,-3.39,82,38,4.33,RU,1619583606
1122,1636022,Martapura,-3.4167,114.85,31.0,66,40,3.6,ID,1619583607
1123,1710519,Isabela,6.7085,121.9711,31.0,66,75,3.6,PH,1619583607
1124,1079048,Ambovombe,-25.1667,46.0833,21.25,80,0,1.76,MG,1619583607
1125,3421982,Maniitsoq,65.4167,-52.9,0.5,79,35,4.43,GL,1619583608
1126,1645528,Denpasar,-8.65,115.2167,30.0,66,20,5.14,ID,1619583434
1127,3395458,Maragogi,-9.0122,-35.2225,24.76,87,10,2.11,BR,1619583608
1128,698316,Osypenko,46.9136,36.8253,9.44,100,100,3.58,UA,1619583609
1129,3697441,El Alto,-4.2714,-81.2147,21.2,75,84,6.27,PE,1619583609
1130,2986626,Plouzané,48.3833,-4.6167,7.0,93,75,1.54,FR,1619583610
1131,2173911,Broken Hill,-31.95,141.4333,23.0,27,35,4.63,AU,1619583610
1132,3406844,Baião,-2.7906,-49.6717,22.09,98,100,1.08,BR,1619583610
1133,3402648,Carutapera,-1.195,-46.02,25.06,86,100,1.6,BR,1619583611
1134,5380437,Pacific Grove,36.6177,-121.9166,12.22,84,0,2.15,US,1619583611
1135,2051523,Bratsk,56.1325,101.6142,4.0,26,6,1.0,RU,1619583611
1136,4503351,Ocean City,39.2776,-74.5746,16.0,72,1,2.57,US,1619583612
1137,2283016,Odienné,9.51,-7.5692,23.48,82,98,2.97,CI,1619583612
1138,5909514,Brooks,50.5834,-111.8851,9.0,37,100,4.63,CA,1619583613
1139,1183090,Bat Khela,34.6167,71.9714,28.66,21,5,1.85,PK,1619583613
1140,3995647,Moctezuma,29.8,-109.6667,16.15,41,11,4.81,MX,1619583613
1141,2246451,Saint-Louis,16.3333,-15.0,25.0,47,0,2.06,SN,1619583614
1142,214614,Kamina,-8.7386,24.9906,17.11,95,15,0.83,CD,1619583614
1143,3421719,Narsaq,60.9167,-46.05,4.0,70,18,1.54,GL,1619583614
1144,2511150,Santa Lucía,27.9117,-15.5407,18.89,67,40,2.06,ES,1619583615
1145,1226260,Trincomalee,8.5711,81.2335,29.91,64,76,2.71,LK,1619583615
1146,2417831,Mamou,10.5,-12.0,21.72,62,75,1.58,GN,1619583616
1147,2065594,Mount Isa,-20.7333,139.5,30.0,21,0,2.57,AU,1619583616
1148,3938455,Ilabaya,-17.4208,-70.5133,17.51,54,84,0.15,PE,1619583617
1149,113636,Tafresh,34.692,50.013,15.0,58,90,5.14,IR,1619583378
1150,86049,Jalu,29.0331,21.5482,21.06,24,0,4.34,LY,1619583617
1151,2068655,Katherine,-14.4667,132.2667,32.0,51,75,6.17,AU,1619583618
1152,1726449,Basco,20.4487,121.9702,24.63,73,24,5.8,PH,1619583618
1153,6301965,Palmerston,-12.486,130.9833,33.33,55,75,3.09,AU,1619583618
1154,2138285,Tadine,-21.55,167.8833,23.77,53,0,7.36,NC,1619583619
1155,2038154,Changping,40.2186,116.2197,22.0,11,0,7.0,CN,1619583619
1156,3470137,Belmonte,-15.8631,-38.8828,21.0,88,75,2.06,BR,1619583620
1157,3357114,Grootfontein,-19.5667,18.1167,11.0,87,0,1.54,NA,1619583620
1158,2141305,Fayaoué,-20.65,166.5333,24.57,59,11,9.24,NC,1619583620
1159,2063036,Port Lincoln,-34.7333,135.8667,21.74,42,60,0.51,AU,1619583621
1160,2125711,Esso,55.9333,158.7,2.33,96,100,1.47,RU,1619583621
1161,2347468,Bauchi,10.5,10.0,26.21,48,46,1.31,NG,1619583622
1162,237379,Ndélé,8.4109,20.6473,26.55,53,99,2.16,CF,1619583622
1163,2655273,Bodmin,50.4715,-4.7243,8.0,87,75,2.57,GB,1619583622
1164,2027316,Ayan,56.45,138.1667,-0.58,89,100,6.92,RU,1619583623
1165,664475,Turceni,44.6833,23.3667,6.11,89,100,4.75,RO,1619583623
1166,1278122,Avanigadda,16.0215,80.9181,32.0,70,40,2.57,IN,1619583624
1167,1252783,Yārāda,17.65,83.2667,32.0,66,20,4.63,IN,1619583624
1168,3176923,Fiumicino,41.7675,12.2291,15.0,94,40,4.12,IT,1619583625
1169,2017945,Petrovsk-Zabaykal'skiy,51.273,108.843,2.7,25,33,6.03,RU,1619583625
1170,988698,Knysna,-34.0363,23.0471,14.0,94,20,2.06,ZA,1619583548
1171,4032420,Neiafu,-18.65,-173.9833,25.0,94,75,5.14,TO,1619583625
1172,3557758,Guane,22.2025,-84.0875,23.76,73,3,2.89,CU,1619583626
1173,1254046,Tura,25.5198,90.2201,33.73,34,0,2.9,IN,1619583626
